     3.04           OBSERVATION DATA    M (MIXED)           RINEX VERSION / TYPE
Alloy 6.12          Receiver Operator   20211219 010556 UTC PGM / RUN BY / DATE
TBNET                                                       MARKER NAME
2000                                                        MARKER NUMBER
GEODETIC                                                    MARKER TYPE         
OBS                 AGENCY                                  OBSERVER / AGENCY   
5827R40082          TRIMBLE ALLOY       6.12                REC # / TYPE / VERS
                    TRM115000.00    NONE                    ANT # / TYPE
 -2267217.5134  5009524.7415  3221081.2996                  APPROX POSITION XYZ
        0.0000        0.0000        0.0000                  ANTENNA: DELTA H/E/N
G   15 C1C L1C S1C C1X L1X S1X C2W L2W S2W C2X L2X S2X C5X  SYS / # / OBS TYPES
       L5X S5X                                              SYS / # / OBS TYPES
R   12 C1C L1C S1C C1P L1P S1P C2C L2C S2C C2P L2P S2P      SYS / # / OBS TYPES
E   15 C1X L1X S1X C5X L5X S5X C7X L7X S7X C8X L8X S8X C6X  SYS / # / OBS TYPES
       L6X S6X                                              SYS / # / OBS TYPES
J   18 C1C L1C S1C C1X L1X S1X C1Z L1Z S1Z C2X L2X S2X C5X  SYS / # / OBS TYPES
       L5X S5X C6L L6L S6L                                  SYS / # / OBS TYPES
C   18 C1X L1X S1X C5X L5X S5X C2I L2I S2I C7I L7I S7I C6I  SYS / # / OBS TYPES
       L6I S6I C7D L7D S7D                                  SYS / # / OBS TYPES
I    3 C5A L5A S5A                                          SYS / # / OBS TYPES
     1.000                                                  INTERVAL
  2021    12    19     1    22   33.0000000     GPS         TIME OF FIRST OBS
G L2X -0.25000                                              SYS / PHASE SHIFT   
R L1P  0.25000                                              SYS / PHASE SHIFT   
R L2C -0.25000                                              SYS / PHASE SHIFT   
J L2X  0.25000                                              SYS / PHASE SHIFT   
DBHZ                                                        SIGNAL STRENGTH UNIT
  9 R02 -4 R03  5 R04  6 R12 -1 R13 -2 R14 -7 R17  4 R18 -3 GLONASS SLOT / FRQ #
    R19  3                                                  GLONASS SLOT / FRQ #
                                                            GLONASS COD/PHS/BIS 
                                                            END OF HEADER    
> 2021 12 19  1 22 33.0000000  0 31       0.000000004000
C33  23115173.582 0 121471240.628 0        36.700    23115195.898 0  90708977.911 0        44.100    23115173.195 0 120366768.571 0        33.800                                                    23115177.336 0  97807851.908 0        42.500    23115194.035 0  93075247.930 0        41.400
C26  23166717.254 0 121741776.320 0        42.500    23166692.980 0  90911253.772 0        41.700    23166697.039 0 120634845.730 0        39.000                                                    23166687.113 0  98025818.273 0        41.600    23166691.898 0  93282635.537 0        39.600
C24  22909894.309 0 120392302.056 0        47.200    22909889.539 0  89903327.654 0        53.200    22909894.836 0 119297840.761 0        45.700                                                    22909882.781 0  96939271.405 0        50.100    22909887.168 0  92248610.208 0        50.900
C16                                                                                                  36186226.555 1 188431168.098 1        44.200    36186223.820 1 145706919.309 1        44.900    36186217.195 1 153115769.824 1        44.500
C14                                                                                                  22074691.875 1 114948687.389 1        45.700    22074684.512 1  88885613.726 1        45.300    22074679.648 1  93405247.139 1        50.600
C13                                                                                                  35818026.078 1 186513903.852 1        45.000    35818024.848 1 144224318.020 1        44.700    35818018.309 1 151557758.174 1        45.800
C09                                                                                                  37071639.109 1 193041786.016 1        40.600    37071632.730 1 149272112.291 1        45.200    37071626.281 1 156862214.003 1        43.300
C06                                                                                                  36112119.406 1 188045289.372 1        41.000    36112111.020 1 145408517.880 1        46.300    36112106.293 1 152802166.714 1        44.900
C05                                                                                                  39256400.250 1 204418383.565 1        33.000    39256393.488 1 158069232.382 1        37.400    39256389.781 1 166106626.907 1        33.800
C03                                                                                                  36687675.211 0 191042315.092 0        37.400    36687657.484 0 147726003.214 0        37.800    36687654.543 0 155237474.383 0        32.000
C02                                                                                                  37384804.516 0 194672490.772 0        35.300    37384795.633 0 150533076.443 0        39.500    37384793.977 0 158187295.774 0        34.600
C01                                                                                                  37733151.727 0 196486421.015 0        38.500    37733144.906 0 151935734.669 0        39.200    37733141.438 0 159661321.710 0        37.400
R17  21633693.430 0 115766290.792 0        29.600
R12  20723170.289 0 110699419.807 0        43.000    20723197.242 0 110699521.764 0        37.100    20723179.055 0  86099510.487 0        36.000    20723194.855 0  86099681.603 0        33.800
C38  36324910.379 1 190888641.469 1        47.000    36324907.031 1 142546720.488 1        51.100    36324911.313 1 189153286.930 1        46.000                                                    36324900.254 1 153702540.228 1        48.200    36324904.637 1 146265336.410 1        47.700
J07  36952230.766 0 194185262.699 0        41.100    36952228.863 0 194185290.707 0        44.300    36952223.980 0 194185323.551 0        47.300    36952236.223 0 151313235.256 0        52.000    36952236.375 0 145008510.623 0        53.100
J01  39515019.078 0 207652841.535 0        45.300    39515017.652 0 207652836.527 0        49.800    39515015.484 0 207652869.779 0        45.900    39515023.930 0 161807424.790 0        50.000    39515022.941 0 155065449.340 0        51.900    39515017.930 0 168549327.272 0        48.600
G15  22260900.102 0 116981498.442 0        33.600                                                    22260900.406 0  91154663.539 0        18.600    22260885.207 0  91154695.114 0        39.900
C42  23014509.922 0 120942035.224 0        48.800    23014517.156 0  90313861.215 0        51.400    23014509.422 0 119842556.151 0        44.700                                                    23014509.469 0  97381919.815 0        49.800    23014514.785 0  92669914.621 0        48.400
C58                                                                                                  33016108.039 0 171923531.155 0        38.400
I03  37332007.484 1 146498818.694 1        46.200
C60                                                                                                  37946179.156 0 197595714.673 0        43.200                                                    37946155.535 0 160562601.571 0        41.800    37946161.859 0 152793460.557 0        43.500
C59                                                                                                  37364020.703 0 194564260.797 0        38.800                                                    37363999.078 0 158099313.495 0        44.300    37364004.301 0 150449357.934 0        45.600
R02  20736448.398 1 110653679.484 1        51.800    20736447.813 1 110653686.483 1        48.400    20736452.387 1  86063983.580 1        44.800    20736451.613 1  86063977.561 1        48.500
G24  20040814.273 1 105315181.788 1        49.200                                                    20040821.391 1  82063819.337 1        56.200    20040821.836 1  82063814.341 1        51.700    20040818.832 1  78644461.328 1        53.900
E05  26312862.070 0 138274936.105 0        42.700                                                                                                    26312836.027 0 104604060.10310        30.800
E15  23995886.734 1 126099237.717 1        47.400    23995889.016 1  94165019.374 1        49.700    23995887.680 1  96621482.746 1        50.200    23995890.105 1  95393224.857 1        53.100    23995881.789 1 102353221.773 1        50.400
E13  26274205.594 0 138071972.750 0        33.100    26274216.703 0 103105645.048 0        38.200    26274214.629 0 105795356.548 0        34.700    26274216.164 0 104450516.581 0        41.000    26274203.355 0 112071302.035 0        35.800
E24  27795534.195 0 146066546.298 0        39.500                                                                                                    27795535.609 0 110498380.062 0        33.600    27795526.680 0 118560454.417 0        31.800
E08  23901451.438 1 125603197.642 1        29.000    23901490.090 1  93794412.32511        35.100                                                    23901453.258 1  95017867.22411        27.300
E03  24028267.359 1 126269461.929 1        51.200    24028269.531 1  94292100.407 1        49.400    24028267.012 1  96751756.581 1        49.900    24028270.289 1  95522013.285 1        53.100    24028262.242 1 102491523.474 1        51.900
> 2021 12 19  1 22 34.0000000  0 31       0.000000004000
C33  23114931.887 0 121469970.699 0        36.500    23114954.492 0  90708029.589 0        44.200    23114931.109 0 120365510.185 0        34.000                                                    23114935.656 0  97806829.352 0        42.500    23114952.379 0  93074274.852 0        41.300
C26  23166904.520 0 121742761.547 0        42.400    23166880.609 0  90911989.468 0        41.500    23166883.977 0 120635822.002 0        39.300                                                    23166874.563 0  98026611.577 0        41.400    23166879.383 0  93283390.452 0        39.800
C24  22909556.000 0 120390525.070 0        47.100    22909551.355 0  89902000.683 0        53.100    22909556.570 0 119296079.929 0        45.500                                                    22909544.570 0  96937840.580 0        50.000    22909549.059 0  92247248.620 0        50.700
C16                                                                                                  36186264.422 1 188431366.530 1        44.100    36186261.926 1 145707072.743 1        44.900    36186255.234 1 153115931.061 1        44.500
C14                                                                                                  22074649.250 1 114948465.115 1        45.800    22074641.594 1  88885441.848 1        45.000    22074636.984 1  93405066.517 1        50.300
C13                                                                                                  35818064.797 1 186514105.765 1        45.100    35818063.555 1 144224474.150 1        45.100    35818057.078 1 151557922.240 1        45.700
C09                                                                                                  37071628.016 1 193041728.638 1        40.800    37071621.777 1 149272067.915 1        45.100    37071615.266 1 156862167.377 1        43.400
C06                                                                                                  36112123.469 1 188045311.790 1        41.100    36112115.457 1 145408535.217 1        46.100    36112110.641 1 152802184.927 1        45.100
C05                                                                                                  39256401.117 1 204418388.133 1        33.700    39256394.355 1 158069235.905 1        37.500    39256390.738 1 166106630.616 1        34.000
C03                                                                                                  36687682.359 0 191042353.923 0        37.400    36687664.793 0 147726033.243 0        37.700    36687661.824 0 155237505.931 0        32.600
C02                                                                                                  37384806.484 0 194672499.830 0        35.200    37384797.137 0 150533083.449 0        39.800    37384795.801 0 158187303.132 0        34.700
C01                                                                                                  37733155.102 0 196486439.491 0        38.400    37733148.617 0 151935748.955 0        39.100    37733145.102 0 159661336.724 0        38.100
R17  21634358.711 0 115769835.520 0        31.300
R12  20723191.289 0 110699556.957 0        42.500    20723223.512 0 110699658.936 0        37.100    20723205.059 0  86099617.115 0        36.000    20723220.004 0  86099788.283 0        34.600
C38  36325061.145 1 190889434.021 1        47.300    36325057.914 1 142547312.325 1        51.300    36325062.094 1 189154072.268 1        45.900                                                    36325051.004 1 153703178.382 1        48.300    36325055.492 1 146265943.688 1        47.500
J07  36952230.094 0 194185260.146 0        41.500    36952228.410 0 194185288.154 0        44.300    36952223.332 0 194185320.995 0        47.000    36952235.520 0 151313233.259 0        52.100    36952235.922 0 145008508.707 0        53.400
J01  39514932.969 0 207652390.899 0        45.500    39514931.688 0 207652385.899 0        49.700    39514929.777 0 207652419.144 0        46.100    39514938.375 0 161807073.636 0        50.200    39514937.125 0 155065112.820 0        52.100    39514932.406 0 168548961.496 0        48.400
G15  22261343.305 0 116983830.786 0        29.900                                                    22261344.238 0  91156480.996 0        17.800    22261320.645 0  91156512.530 0        40.500
C42  23014645.484 0 120942748.091 0        49.000    23014652.801 0  90314393.547 0        51.700    23014645.320 0 119843262.554 0        44.700                                                    23014645.102 0  97382493.820 0        49.900    23014650.410 0  92670460.850 0        48.700
C58                                                                                                  33016481.508 0 171925476.975 0        38.300
I03  37332004.336 1 146498804.261 1        46.600
C60                                                                                                  37946188.750 0 197595763.801 0        43.000                                                    37946164.973 0 160562641.489 0        41.600    37946171.316 0 152793498.542 0        43.700
C59                                                                                                  37364018.180 0 194564248.230 0        38.900                                                    37363996.699 0 158099303.278 0        43.900    37364001.883 0 150449348.213 0        45.300
R02  20736578.617 1 110654370.470 1        51.700    20736577.184 1 110654377.477 1        48.800    20736582.105 1  86064521.017 1        44.900    20736581.090 1  86064514.990 1        48.500
G24  20040924.391 1 105315760.973 1        49.500                                                    20040931.691 1  82064270.649 1        56.100    20040931.844 1  82064265.662 1        51.400    20040929.008 1  78644893.849 1        54.100
E05  26313174.938 0 138276564.280 0        43.300                                                                                                    26313145.879 0 104605291.78010        30.600
E15  23996068.844 1 126100195.338 1        47.300    23996071.184 1  94165734.486 1        49.800    23996069.816 1  96622216.502 1        50.400    23996072.324 1  95393949.295 1        53.200    23996064.137 1 102353999.061 1        50.200
E13  26273891.734 0 138070327.886 0        32.600    26273903.820 0 103104416.707 0        37.700    26273901.973 0 105794096.161 0        35.300    26273903.168 0 104449272.229 0        41.100    26273891.004 0 112069966.910 0        35.000
E24  27795595.531 0 146066867.867 0        39.100                                                                                                    27795596.438 0 110498623.378 0        33.300    27795588.156 0 118560715.432 0        32.400
E08  23901223.688 1 125602001.006 1        29.600    23901263.457 1  93793518.801 1        34.400                                                    23901225.668 1  95016961.97011        24.600
E03  24028334.945 1 126269817.264 1        51.300    24028337.129 1  94292365.742 1        49.700    24028334.672 1  96752028.843 1        50.100    24028337.914 1  95522282.085 1        53.300    24028329.926 1 102491811.895 1        51.700
> 2021 12 19  1 22 35.0000000  0 31       0.000000004000
C33  23114690.781 0 121468700.880 0        36.200    23114712.906 0  90707081.350 0        44.300    23114689.008 0 120364251.915 0        34.300                                                    23114693.922 0  97805806.903 0        42.100    23114710.648 0  93073301.878 0        41.600
C26  23167091.824 0 121743747.309 0        41.800    23167068.316 0  90912725.604 0        42.000    23167071.023 0 120636798.805 0        39.400                                                    23167062.168 0  98027405.299 0        40.600    23167066.969 0  93284145.765 0        39.500
C24  22909217.996 0 120388748.565 0        46.800    22909213.367 0  89900674.067 0        53.200    22909218.594 0 119294319.566 0        45.700                                                    22909206.609 0  96936410.145 0        49.900    22909211.012 0  92245887.400 0        50.500
C16                                                                                                  36186302.719 1 188431565.041 1        44.100    36186300.211 1 145707226.247 1        44.800    36186293.379 1 153116092.370 1        43.600
C14                                                                                                  22074606.492 1 114948242.981 1        45.800    22074599.078 1  88885270.086 1        45.400    22074594.266 1  93404886.016 1        49.800
C13                                                                                                  35818103.773 1 186514307.850 1        45.000    35818102.520 1 144224630.411 1        45.000    35818095.844 1 151558086.448 1        45.600
C09                                                                                                  37071617.117 1 193041671.359 1        40.800    37071610.844 1 149272023.619 1        45.200    37071604.305 1 156862120.834 1        43.300
C06                                                                                                  36112127.758 1 188045334.275 1        41.100    36112119.496 1 145408552.603 1        46.300    36112114.949 1 152802203.205 1        44.700
C05                                                                                                  39256401.781 1 204418392.692 1        33.100    39256395.176 1 158069239.437 1        37.700    39256391.551 1 166106634.330 1        33.500
C03                                                                                                  36687689.883 0 191042392.774 0        37.500    36687672.301 0 147726063.281 0        38.300    36687668.992 0 155237537.498 0        32.700
C02                                                                                                  37384807.969 0 194672508.953 0        35.600    37384799.043 0 150533090.506 0        39.700    37384797.480 0 158187310.539 0        35.200
C01                                                                                                  37733158.820 0 196486458.016 0        38.100    37733152.090 0 151935763.275 0        39.100    37733148.613 0 159661351.793 0        37.700
R17  21635022.008 0 115773380.638 0        33.200
R12  20723213.805 0 110699695.038 0        42.100    20723249.590 0 110699797.003 0        37.100    20723229.113 0  86099724.544 0        35.700    20723245.250 0  86099895.705 0        33.700
C38  36325212.059 1 190890226.767 1        46.800    36325208.762 1 142547904.307 1        50.900    36325213.094 1 189154857.804 1        45.900                                                    36325201.875 1 153703816.692 1        47.900    36325206.367 1 146266551.107 1        47.500
J07  36952229.469 0 194185257.611 0        41.600    36952227.594 0 194185285.612 0        44.500    36952222.988 0 194185318.458 0        47.100    36952235.090 0 151313231.288 0        51.600    36952235.391 0 145008506.825 0        53.100
J01  39514847.594 0 207651940.203 0        45.400    39514845.996 0 207651935.197 0        49.700    39514843.898 0 207651968.447 0        45.800    39514852.551 0 161806722.443 0        49.500    39514851.301 0 155064776.258 0        52.300    39514846.383 0 168548595.667 0        48.400
G15  22261786.516 0 116986163.139 0        26.400                                                    22261787.777 0  91158298.509 0        17.400    22261754.375 0  91158330.033 0        41.200
C42  23014781.105 0 120943461.128 0        49.000    23014788.461 0  90314926.014 0        51.800    23014780.789 0 119843969.111 0        44.600                                                    23014780.793 0  97383067.955 0        49.700    23014786.055 0  92671007.204 0        48.800
C58                                                                                                  33016855.398 0 171927423.081 0        38.200
I03  37332000.359 1 146498789.869 1        46.300
C60                                                                                                  37946197.930 0 197595812.977 0        43.000                                                    37946174.410 0 160562681.451 0        41.600    37946180.777 0 152793536.572 0        44.000
C59                                                                                                  37364016.039 0 194564235.690 0        38.900                                                    37363994.301 0 158099293.084 0        43.700    37363999.422 0 150449338.513 0        45.400
R02  20736707.609 1 110655061.560 1        52.000    20736706.727 1 110655068.567 1        49.100    20736711.703 1  86065058.546 1        45.200    20736710.629 1  86065052.510 1        48.200
G24  20041035.039 1 105316340.895 1        49.300                                                    20041042.039 1  82064722.539 1        56.200    20041042.297 1  82064717.537 1        50.900    20041039.379 1  78645326.896 1        53.700
E05  26313487.203 0 138278192.473 0        43.500                                                                                                    26313455.738 0 104606523.492 0        30.600
E15  23996251.266 1 126101153.461 1        47.100    23996253.469 1  94166449.966 1        49.800    23996252.152 1  96622950.652 1        50.300    23996254.648 1  95394674.102 1        53.100    23996246.371 1 102354776.760 1        50.300
E13  26273577.391 0 138068683.402 0        32.900    26273590.648 0 103103188.701 0        38.200    26273589.242 0 105792836.126 0        35.700    26273590.219 0 104448028.205 0        41.400    26273578.652 0 112068632.116 0        34.000
E24  27795657.195 0 146067189.934 0        38.700                                                                                                    27795657.234 0 110498867.053 0        32.600    27795649.699 0 118560976.844 0        32.800
E08  23900995.547 1 125600804.572 1        28.600    23901036.316 1  93792625.288 1        34.400                                                    23900998.141 1  95016056.818 1        25.600
E03  24028402.633 1 126270172.676 1        51.300    24028404.758 1  94292631.155 1        49.800    24028402.383 1  96752301.177 1        49.800    24028405.563 1  95522550.958 1        53.100    24028397.535 1 102492100.375 1        51.100
> 2021 12 19  1 22 36.0000000  0 32       0.000000004000
C33  23114449.137 0 121467430.986 0        35.800    23114471.500 0  90706133.059 0        44.600    23114447.289 0 120362993.604 0        34.500                                                    23114452.195 0  97804784.405 0        42.300    23114468.984 0  93072328.859 0        41.300
C26  23167278.383 0 121744733.507 0        41.200    23167256.148 0  90913462.029 0        41.800    23167258.211 0 120637776.027 0        39.200                                                    23167249.859 0  98028199.373 0        40.600    23167254.539 0  93284901.420 0        39.600
C24  22908880.074 1 120386972.374 1        46.500    22908875.293 1  89899347.696 1        53.100    22908880.664 1 119292559.524 1        45.500                                                    22908868.559 1  96934979.968 1        50.000    22908873.047 1  92244526.420 1        51.000
C16                                                                                                  36186340.836 1 188431763.509 1        44.100    36186338.238 1 145707379.717 1        44.900    36186331.523 1 153116253.650 1        43.700
C14                                                                                                  22074564.156 1 114948020.847 1        45.600    22074556.410 1  88885098.323 1        45.800    22074551.602 1  93404705.511 1        50.400
C13                                                                                                  35818142.508 1 186514509.994 1        44.900    35818141.316 1 144224786.720 1        45.200    35818134.566 1 151558250.706 1        45.900
C09                                                                                                  37071605.906 1 193041614.063 1        40.500    37071599.625 1 149271979.323 1        45.200    37071593.250 1 156862074.277 1        43.800
C06                                                                                                  36112131.930 1 188045356.737 1        40.900    36112123.867 1 145408569.974 1        46.300    36112119.207 1 152802221.456 1        45.000
C05                                                                                                  39256402.656 1 204418397.184 1        33.600    39256396.027 1 158069242.909 1        37.500    39256392.398 1 166106637.976 1        34.300
C03                                                                                                  36687697.383 0 191042431.512 0        37.300    36687679.797 0 147726093.235 0        37.900    36687676.215 0 155237568.976 0        33.100
C02                                                                                                  37384809.805 0 194672517.945 0        35.500    37384800.934 0 150533097.462 0        39.200    37384799.277 0 158187317.857 0        35.200
C01                                                                                                  37733162.039 0 196486476.395 0        38.300    37733155.641 0 151935777.495 0        39.600    37733152.141 0 159661366.737 0        37.800
R17  21635685.469 0 115776925.970 0        34.300
R12  20723239.758 0 110699833.922 0        41.700    20723275.949 0 110699935.924 0        37.100    20723252.934 0  86099832.544 0        35.800    20723270.832 0  86100003.736 0        34.300
C38  36325362.875 1 190891019.548 1        46.400    36325359.738 1 142548496.329 1        51.100    36325363.625 1 189155643.387 1        45.800                                                    36325352.676 1 153704455.039 1        48.100    36325357.242 1 146267158.572 1        47.100
J07  36952228.844 0 194185254.970 0        41.400    36952227.293 0 194185282.977 0        44.300    36952222.613 0 194185315.818 0        46.900    36952234.703 0 151313229.222 0        51.600    36952234.828 0 145008504.850 0        53.200
J01  39514761.734 0 207651489.300 0        45.800    39514760.277 0 207651484.291 0        49.600    39514758.098 0 207651517.552 0        45.500    39514766.652 0 161806371.092 0        49.900    39514765.582 0 155064439.542 0        52.300    39514760.598 0 168548229.676 0        48.400
G15  22262220.297 0               0        28.600                                                    22262231.746 0               0        16.300    22262189.520 0  91160147.531 0        41.600
C42  23014916.883 0 120944174.205 0        49.200    23014924.070 0  90315458.498 0        51.800    23014916.523 0 119844675.691 0        44.600                                                    23014916.402 0  97383642.107 0        50.300    23014921.738 0  92671553.571 0        49.000
C58                                                                                                  33017229.047 0 171929369.386 0        38.100
I03  37331996.703 1 146498775.383 1        46.200
C60                                                                                                  37946207.422 0 197595862.023 0        43.000                                                    37946183.863 0 160562721.306 0        41.700    37946190.215 0 152793574.495 0        44.200
C59                                                                                                  37364013.656 0 194564223.049 0        38.700                                                    37363991.906 0 158099282.814 0        43.800    37363996.984 0 150449328.738 0        45.200
R02  20736836.984 1 110655752.619 1        51.500    20736835.922 1 110655759.626 1        49.000    20736840.922 1  86065596.029 1        46.000    20736840.152 1  86065589.994 1        48.100
G10  22957876.813 0               0        32.200                                                                                                    22957908.992 0  94009007.08410        34.000    22957901.918 0  90091775.60610        40.500
G24  20041145.227 1 105316921.353 1        49.400                                                    20041152.430 1  82065174.839 1        56.000    20041152.785 1  82065169.844 1        51.500    20041149.746 1  78645760.348 1        54.000
E05  26313798.133 0 138279820.390 0        43.500                                                                                                    26313765.469 0 104607755.05210        31.500
E15  23996433.836 1 126102111.913 1        47.500    23996435.938 1  94167165.698 1        49.600    23996434.504 1  96623685.053 1        50.400    23996437.043 1  95395399.168 1        52.900    23996428.895 1 102355554.725 1        50.500
E13  26273262.617 0 138067039.245 0        31.800    26273277.516 0 103101960.913 0        37.900    26273276.500 0 105791576.292 0        35.500    26273277.242 0 104446784.404 0        41.600    26273266.355 0 112067297.563 0        33.200
E24  27795718.875 0 146067512.284 0        38.400                                                                                                    27795717.895 0 110499110.966 0        33.600    27795711.531 0 118561238.497 0        33.600
E08  23900768.570 1 125599607.968 1        27.400    23900809.125 1  93791731.840 1        34.000                                                    23900770.551 1  95015151.59011        26.400
E03  24028470.242 1 126270528.044 1        51.400    24028472.449 1  94292896.527 1        49.700    24028469.941 1  96752573.470 1        50.300    24028473.188 1  95522819.791 1        53.500    24028465.355 1 102492388.825 1        51.300
> 2021 12 19  1 22 37.0000000  0 33       0.000000004000
C33  23114207.695 0 121466161.189 0        35.600    23114229.871 0  90705184.823 0        44.500    23114205.594 0 120361735.355 0        34.800                                                    23114210.414 0  97803761.968 0        42.800    23114227.277 0  93071355.899 0        41.300
C26  23167464.277 0 121745720.174 0        40.600    23167443.934 0  90914198.840 0        42.200    23167446.141 0 120638753.745 0        39.400                                                    23167437.527 0  98028993.840 0        41.400    23167442.332 0  93285657.441 0        39.500
C24  22908542.129 0 120385196.621 0        46.700    22908537.418 0  89898021.651 0        53.500    22908542.734 0 119290799.926 0        45.700                                                    22908530.707 0  96933550.156 0        50.200    22908535.191 0  92243165.791 0        51.000
C16                                                                                                  36186378.883 1 188431962.020 1        44.100    36186376.336 1 145707533.218 1        44.900    36186369.703 1 153116414.953 1        43.800
C14                                                                                                  22074521.359 1 114947798.850 1        45.700    22074513.980 1  88884926.665 1        46.000    22074508.934 1  93404525.124 1        50.200
C13                                                                                                  35818181.336 1 186514712.329 1        44.900    35818180.191 1 144224943.183 1        45.100    35818173.398 1 151558415.121 1        46.000
C09                                                                                                  37071595.047 1 193041556.841 1        40.900    37071588.754 1 149271935.075 1        45.000    37071582.320 1 156862027.777 1        43.700
C06                                                                                                  36112136.508 1 188045379.280 1        40.900    36112128.160 1 145408587.404 1        46.700    36112123.648 1 152802239.767 1        45.100
C05                                                                                                  39256403.664 1 204418401.652 1        33.600    39256396.816 1 158069246.365 1        37.800    39256393.227 1 166106641.608 1        34.600
C03                                                                                                  36687704.617 0 191042470.218 0        37.300    36687687.188 0 147726123.159 0        37.900    36687684.008 0 155237600.429 0        32.100
C02                                                                                                  37384811.672 0 194672526.968 0        35.500    37384802.395 0 150533104.431 0        39.500    37384801.008 0 158187325.175 0        35.200
C01                                                                                                  37733165.805 0 196486494.809 0        38.100    37733159.051 0 151935791.736 0        38.800    37733155.590 0 159661381.703 0        37.700
R17  21636348.648 0 115780471.709 0        35.200
R12  20723266.461 0 110699973.656 0        41.000    20723302.113 0 110700075.651 0        36.500    20723275.973 0  86099941.252 0        35.100    20723296.387 0  86100112.421 0        35.100
C38  36325513.734 1 190891812.494 1        46.400    36325510.555 1 142549088.460 1        51.000    36325514.641 1 189156429.118 1        45.700                                                    36325503.504 1 153705093.507 1        48.400    36325508.172 1 146267766.147 1        47.200
G18  20749402.156 0 109038816.49910        32.300    20749403.691 0 109038812.52410        35.400                                                    20749424.199 0  84965328.71710        36.100    20749406.414 0  81425077.77210        37.800
J07  36952228.469 0 194185252.309 0        41.800    36952226.707 0 194185280.330 0        44.500    36952221.945 0 194185313.156 0        46.900    36952234.324 0 151313227.167 0        52.300    36952234.305 0 145008502.872 0        53.000
J01  39514675.766 0 207651038.292 0        46.000    39514674.465 0 207651033.286 0        49.600    39514672.188 0 207651066.543 0        45.400    39514680.906 0 161806019.660 0        49.800    39514679.746 0 155064102.766 0        52.000    39514674.887 0 168547863.600 0        48.400
G15  22262649.195 0 116991109.899 0        32.900                                                    22262675.535 0  91161932.938 0        13.900    22262630.965 0  91161965.054 0        42.100
C42  23015052.539 0 120944887.403 0        49.100    23015059.691 0  90315991.084 0        52.100    23015051.875 0 119845382.415 0        44.500                                                    23015052.102 0  97384216.375 0        50.400    23015057.461 0  92672100.052 0        49.000
C58                                                                                                  33017602.813 0 171931315.983 0        37.900
I03  37331993.438 1 146498760.905 1        46.200
C60                                                                                                  37946216.938 0 197595911.060 0        43.100                                                    37946193.266 0 160562761.157 0        41.400    37946199.617 0 152793612.418 0        44.000
C59                                                                                                  37364011.086 0 194564210.394 0        38.800                                                    37363989.449 0 158099272.536 0        43.800    37363994.559 0 150449318.958 0        45.200
R02  20736966.461 1 110656443.745 1        51.300    20736965.359 1 110656450.744 1        48.900    20736970.293 1  86066133.564 1        46.100    20736969.664 1  86066127.536 1        47.800
G10  22957361.227 0 120641923.28910        31.900                                                                                                    22957390.793 0  94006884.992 0        34.700    22957383.477 0  90089741.901 0        40.800
G24  20041255.633 1 105317502.482 1        49.600                                                    20041263.137 1  82065627.666 1        56.100    20041263.332 1  82065622.671 1        51.800    20041260.391 1  78646194.311 1        53.900
E05  26314108.398 0 138281448.434 0        43.500                                                                                                    26314075.246 0 104608986.591 0        31.100    26314103.066 0 112241511.82110        38.500
E15  23996616.266 1 126103070.826 1        47.300    23996618.328 1  94167881.766 1        49.700    23996616.992 1  96624419.807 1        50.600    23996619.523 1  95396124.579 1        53.000    23996611.324 1 102356333.062 1        50.900
E13  26272947.828 0 138065395.468 0        31.600    26272964.508 0 103100733.397 0        38.300    26272963.863 0 105790316.738 0        35.900    26272964.379 0 104445540.870 0        41.600    26272954.473 0 112065963.309 0        32.300
E24  27795780.797 0 146067835.018 0        37.800                                                                                                    27795778.836 0 110499355.133 0        34.100    27795773.160 0 118561500.453 0        33.700
E08  23900540.891 1 125598411.57811        28.300    23900581.980 1  93790838.377 1        34.000                                                    23900543.074 1  95014246.52411        25.700
E03  24028537.883 1 126270883.471 1        51.700    24028540.039 1  94293161.943 1        50.000    24028537.559 1  96752845.814 1        50.500    24028540.820 1  95523088.672 1        53.800    24028532.824 1 102492677.320 1        51.100
> 2021 12 19  1 22 38.0000000  0 33       0.000000004000
C33  23113965.750 0 121464891.475 0        35.400    23113988.320 0  90704236.659 0        44.100    23113963.602 0 120360477.164 0        34.700                                                    23113968.734 0  97802739.580 0        42.600    23113985.691 0  93070382.979 0        40.900
C26  23167649.832 0 121746707.446 0        39.400    23167631.910 0  90914936.097 0        41.700    23167633.500 0 120639732.044 0        39.400                                                    23167625.422 0  98029788.787 0        41.400    23167630.113 0  93286413.924 0        39.500
C24  22908204.273 0 120383421.361 0        46.700    22908199.563 0  89896695.970 0        53.200    22908204.852 0 119289040.794 0        45.400                                                    22908192.914 0  96932120.715 0        50.100    22908197.395 0  92241805.522 0        50.900
C16                                                                                                  36186417.188 1 188432160.629 1        44.200    36186414.484 1 145707686.792 1        45.200    36186407.832 1 153116576.339 1        44.300
C14                                                                                                  22074478.773 1 114947577.020 1        45.700    22074471.230 1  88884755.127 1        46.000    22074466.348 1  93404344.863 1        50.200
C13                                                                                                  35818220.164 1 186514914.866 1        45.000    35818218.988 1 144225099.793 1        44.900    35818212.285 1 151558579.694 1        45.600
C09                                                                                                  37071584.086 1 193041499.731 1        40.400    37071577.660 1 149271890.906 1        44.900    37071571.402 1 156861981.373 1        43.700
C06                                                                                                  36112140.680 1 188045401.915 1        40.900    36112132.605 1 145408604.909 1        46.400    36112128.012 1 152802258.167 1        45.000
C05                                                                                                  39256404.438 1 204418406.161 1        33.300    39256397.633 1 158069249.852 1        37.400    39256394.090 1 166106645.275 1        32.900
C03                                                                                                  36687712.000 0 191042509.021 0        37.500    36687694.637 0 147726153.168 0        37.900    36687691.586 0 155237631.965 0        31.400
C02                                                                                                  37384813.148 0 194672535.993 0        35.400    37384804.035 0 150533111.407 0        39.400    37384802.648 0 158187332.505 0        35.200
C01                                                                                                  37733169.328 0 196486513.250 0        38.300    37733162.418 0 151935805.986 0        39.300    37733159.172 0 159661396.682 0        37.500
R17  21637010.453 0 115784017.799 0        35.600
R12  20723292.609 0 110700114.275 0        40.500    20723328.094 0 110700216.306 0        36.300    20723302.434 0  86100050.625 0        34.600    20723322.297 0  86100221.793 0        35.000
C38  36325664.754 1 190892605.636 1        46.500    36325661.531 1 142549680.740 1        50.800    36325665.484 1 189157215.053 1        45.700                                                    36325654.516 1 153705732.148 1        48.300    36325659.078 1 146268373.883 1        47.300
G18  20749718.484 0 109040476.377 0        34.000    20749722.273 0 109040472.359 0        36.900                                                    20749740.359 0  84966622.142 0        35.900    20749722.469 0  81426317.284 0        37.800
J07  36952228.281 0 194185249.708 0        41.600    36952226.184 0 194185277.718 0        44.400    36952221.371 0 194185310.559 0        46.900    36952233.723 0 151313225.129 0        51.900    36952233.836 0 145008500.923 0        53.500
J01  39514590.109 0 207650587.245 0        46.400    39514588.613 0 207650582.236 0        49.600    39514586.473 0 207650615.489 0        45.700    39514594.977 0 161805668.196 0        50.200    39514593.871 0 155063765.937 0        51.900    39514588.883 0 168547497.489 0        48.200
G15  22263071.750 0 116993442.492 0        37.100                                                    22263119.285 0  91163750.543 0        13.900    22263074.828 0  91163782.676 0        42.300
C42  23015188.230 0 120945600.787 0        48.600    23015195.477 0  90316523.801 0        52.300    23015187.781 0 119846089.307 0        44.500                                                    23015188.055 0  97384790.782 0        50.300    23015193.246 0  92672646.667 0        49.100
C58                                                                                                  33017976.477 0 171933262.859 0        37.900
I03  37331989.172 1 146498746.467 1        45.800
C60                                                                                                  37946226.313 0 197595960.146 0        42.900                                                    37946202.762 0 160562801.035 0        41.800    37946209.012 0 152793650.371 0        43.700
C59                                                                                                  37364008.563 0 194564197.776 0        38.700                                                    37363987.074 0 158099262.281 0        43.900    37363992.109 0 150449309.201 0        45.300
R02  20737095.977 0 110657134.974 0        50.700    20737095.137 0 110657141.974 0        48.900    20737098.879 0  86066671.197 0        46.600    20737099.301 0  86066665.162 0        48.200
G10  22956848.352 0 120639199.910 0        33.400                                                                                                    22956872.848 0  94004762.879 0        34.800    22956865.246 0  90087708.203 0        40.600
G24  20041366.438 0 105318084.325 0        49.500                                                    20041373.855 0  82066081.052 0        56.200    20041374.254 0  82066076.050 0        51.900    20041371.070 0  78646628.811 0        54.100
E05  26314418.117 0 138283076.385 0        43.700                                                                                                    26314385.066 0 104610218.194 0        31.100    26314413.168 0 112242833.218 0        39.900
E15  23996798.563 1 126104030.247 1        47.300    23996800.906 1  94168598.214 1        49.800    23996799.594 1  96625154.940 1        50.700    23996802.102 1  95396850.370 1        53.100    23996794.059 1 102357111.811 1        50.700
E13  26272632.938 0 138063752.145 0        29.500    26272651.617 0 103099506.249 0        38.300    26272650.734 0 105789057.533 0        36.400    26272651.582 0 104444297.700 0        41.800    26272642.645 0 112064629.430 0        31.300
E24  27795842.609 0 146068158.234 0        36.800                                                                                                    27795840.125 0 110499599.649 0        34.200    27795834.703 0 118561762.791 0        34.200
E08  23900312.758 1 125597215.27111        28.300    23900354.961 1  93789945.018 1        33.500                                                    23900315.543 1  95013341.55511        25.600
E03  24028605.563 1 126271239.008 1        51.700    24028607.727 1  94293427.445 1        50.000    24028605.207 1  96753118.241 1        50.600    24028608.469 1  95523357.634 1        53.900    24028600.496 1 102492965.906 1        51.100
> 2021 12 19  1 22 39.0000000  0 33       0.000000004000
C33  23113723.941 0 121463621.803 0        35.900    23113746.844 0  90703288.526 0        44.100    23113720.813 0 120359219.047 0        35.400                                                    23113726.992 0  97801717.254 0        42.600    23113744.066 0  93069410.115 0        41.200
C26  23167833.277 0 121747695.194 0        39.400    23167819.832 0  90915673.728 0        41.600    23167821.273 0 120640710.867 0        39.200                                                    23167813.309 0  98030584.156 0        41.400    23167818.035 0  93287170.808 0        39.300
C24  22907866.270 0 120381646.523 0        46.700    22907861.766 0  89895370.607 0        53.000    22907867.063 0 119287282.096 0        45.500                                                    22907855.188 0  96930691.629 0        50.100    22907859.695 0  92240445.588 0        50.500
C16                                                                                                  36186455.328 1 188432359.282 1        44.200    36186452.719 1 145707840.406 1        45.100    36186445.965 1 153116737.760 1        44.300
C14                                                                                                  22074436.023 1 114947355.294 1        45.600    22074428.789 1  88884583.680 1        46.000    22074423.680 1  93404164.699 1        50.200
C13                                                                                                  35818259.008 1 186515117.568 1        45.000    35818258.105 1 144225256.535 1        44.700    35818251.266 1 151558744.407 1        45.400
C09                                                                                                  37071573.094 1 193041442.706 1        40.600    37071566.730 1 149271846.816 1        45.100    37071560.406 1 156861935.038 1        43.800
C06                                                                                                  36112145.117 1 188045424.615 1        41.000    36112136.898 1 145408622.460 1        46.400    36112132.320 1 152802276.610 1        44.900
C05                                                                                                  39256405.461 1 204418410.689 1        33.100    39256398.426 1 158069253.355 1        37.500    39256394.965 1 166106648.948 1        34.100
C03                                                                                                  36687719.852 0 191042547.770 0        37.400    36687702.309 0 147726183.131 0        37.600    36687699.195 0 155237663.451 0        30.500
C02                                                                                                  37384815.039 0 194672545.025 0        35.500    37384805.906 0 150533118.400 0        39.000    37384804.402 0 158187339.842 0        35.700
C01                                                                                                  37733172.875 0 196486531.658 0        38.600    37733165.988 0 151935820.228 0        39.200    37733162.746 0 159661411.643 0        38.000
R17  21637670.516 0 115787564.219 0        35.800
R12  20723319.898 0 110700255.737 0        40.200    20723354.387 0 110700357.753 0        36.200    20723329.934 0  86100160.665 0        33.600    20723348.570 0  86100331.833 0        34.800
C38  36325815.754 1 190893398.937 1        46.400    36325812.520 1 142550273.140 1        51.000    36325816.469 1 189158001.146 1        45.700                                                    36325805.527 1 153706370.908 1        48.100    36325810.047 1 146268981.735 1        47.500
G18  20750034.695 0 109042136.824 0        35.600    20750039.840 0 109042132.805 0        37.600                                                    20750055.875 0  84967916.016 0        35.900    20750038.434 0  81427557.209 0        38.100
J07  36952227.297 0 194185247.102 0        41.600    36952225.738 0 194185275.107 0        44.400    36952220.891 0 194185307.949 0        46.800    36952233.207 0 151313223.098 0        51.800    36952233.316 0 145008498.972 0        53.100
J01  39514504.219 0 207650136.093 0        46.500    39514502.629 0 207650131.086 0        49.700    39514500.621 0 207650164.338 0        46.000    39514509.543 0 161805316.649 0        49.900    39514508.047 0 155063429.044 0        52.000    39514503.184 0 168547131.293 0        48.200
G15  22263513.609 0 116995775.177 0        39.000                                                    22263562.473 0  91165568.104 0        13.900    22263518.270 0  91165600.374 0        42.500
C42  23015323.867 0 120946314.293 0        48.700    23015331.238 0  90317056.616 0        52.500    23015323.680 0 119846796.332 0        44.500                                                    23015323.742 0  97385365.295 0        50.000    23015329.020 0  92673193.376 0        49.200
C58                                                                                                  33018350.508 0 171935210.050 0        37.800
I03  37331985.719 1 146498732.018 1        46.100
C60                                                                                                  37946235.750 0 197596009.224 0        42.900                                                    37946212.219 0 160562840.914 0        41.300    37946218.398 0 152793688.325 0        43.800
C59                                                                                                  37364006.344 0 194564185.176 0        38.800                                                    37363984.672 0 158099252.044 0        44.300    37363989.695 0 150449299.457 0        45.200
R02  20737226.039 0 110657826.286 0        50.300    20737224.602 0 110657833.285 0        48.900    20737229.539 0  86067208.878 0        46.300    20737228.730 0  86067202.843 0        48.000
G10  22956334.445 0 120636476.585 0        33.700                                                                                                    22956355.051 0  94002640.815 0        35.100    22956346.910 0  90085674.566 0        40.800
G24  20041477.234 0 105318666.824 0        49.400                                                    20041484.762 0  82066534.951 0        56.000    20041485.074 0  82066529.949 0        52.000    20041481.863 0  78647063.794 0        53.700
E05  26314727.656 0 138284704.359 0        43.500                                                                                                    26314694.910 0 104611449.76310        30.800    26314723.219 0 112244154.633 0        40.900
E15  23996981.227 1 126104990.109 1        47.400    23996983.570 1  94169314.998 1        50.300    23996982.125 1  96625890.421 1        50.200    23996984.754 1  95397576.505 1        53.000    23996976.703 1 102357890.927 1        50.500
E13  26272318.391 0 138062109.162 0        29.100    26272338.801 0 103098279.318 0        38.000    26272337.633 0 105787798.629 0        36.900    26272338.824 0 104443054.768 0        41.900    26272330.820 0 112063295.822 0        30.200
E24  27795904.461 0 146068481.949 0        36.000                                                                                                    27795901.750 0 110499844.527 0        34.000    27795896.512 0 118562025.533 0        34.800
E08  23900084.773 1 125596018.962 1        29.000    23900127.434 1  93789051.745 1        33.200                                                    23900088.070 1  95012436.58411        25.000
E03  24028673.320 1 126271594.591 1        51.700    24028675.406 1  94293692.973 1        49.700    24028673.004 1  96753390.701 1        50.500    24028676.156 1  95523626.630 1        53.500    24028668.023 1 102493254.531 1        51.300
> 2021 12 19  1 22 40.0000000  0 33       0.000000004000
C33  23113482.266 0 121462352.256 0        34.800    23113505.293 0  90702340.474 0        44.100    23113478.648 0 120357961.019 0        35.400                                                    23113485.371 0  97800694.997 0        42.400    23113502.449 0  93068437.327 0        41.500
C26  23168013.043 0 121748683.477 0        40.000    23168007.766 0  90916411.764 0        41.600    23168009.391 0 120641690.190 0        39.100                                                    23168001.359 0  98031379.932 0        41.300    23168006.020 0  93287928.081 0        39.700
C24  22907528.898 0 120379872.139 0        46.600    22907524.176 0  89894045.582 0        52.900    22907529.406 0 119285523.843 0        45.500                                                    22907517.594 0  96929262.908 0        50.000    22907522.059 0  92239085.993 0        50.300
C16                                                                                                  36186493.523 1 188432557.989 1        44.200    36186491.004 1 145707994.064 1        45.200    36186484.176 1 153116899.230 1        44.300
C14                                                                                                  22074393.477 1 114947133.685 1        45.700    22074386.109 1  88884412.321 1        46.400    22074381.090 1  93403984.624 1        50.700
C13                                                                                                  35818298.117 1 186515320.459 1        45.000    35818296.953 1 144225413.418 1        44.900    35818290.164 1 151558909.272 1        45.700
C09                                                                                                  37071562.391 1 193041385.770 1        40.600    37071555.867 1 149271802.787 1        44.700    37071549.531 1 156861888.769 1        43.600
C06                                                                                                  36112149.406 1 188045447.403 1        41.300    36112141.168 1 145408640.084 1        46.600    36112136.637 1 152802295.123 1        45.000
C05                                                                                                  39256406.070 1 204418415.238 1        33.300    39256399.422 1 158069256.876 1        37.700    39256395.793 1 166106652.649 1        33.900
C03                                                                                                  36687727.266 0 191042586.543 0        37.400    36687709.531 0 147726213.116 0        38.300    36687706.680 0 155237694.958 0        31.800
C02                                                                                                  37384817.031 0 194672554.083 0        35.200    37384807.391 0 150533125.397 0        39.600    37384806.223 0 158187347.207 0        35.400
C01                                                                                                  37733176.414 0 196486550.114 0        38.300    37733169.551 0 151935834.496 0        39.400    37733166.313 0 159661426.639 0        37.500
R17  21638338.055 0 115791111.022 0        36.000
R12  20723348.508 0 110700398.104 0        39.900    20723381.094 0 110700500.165 0        36.400    20723356.055 0  86100271.417 0        32.800    20723375.004 0  86100442.571 0        34.600
C38  36325966.777 1 190894192.400 1        46.500    36325963.414 1 142550865.660 1        51.100    36325967.359 1 189158787.395 1        45.800                                                    36325956.504 1 153707009.801 1        48.100    36325961.051 1 146269589.712 1        47.300
G18  20750351.805 0 109043797.870 0        36.400    20750356.699 0 109043793.836 0        38.600                                                    20750371.992 0  84969210.373 0        36.000    20750354.824 0  81428797.584 0        38.500
J07  36952227.031 0 194185244.498 0        40.800    36952225.246 0 194185272.498 0        44.500    36952220.395 0 194185305.352 0        46.900    36952232.762 0 151313221.068 0        52.000    36952232.926 0 145008497.029 0        53.000
J01  39514418.578 0 207649684.856 0        45.900    39514416.855 0 207649679.856 0        49.700    39514414.898 0 207649713.107 0        45.700    39514423.605 0 161804965.039 0        50.000    39514422.125 0 155063092.074 0        52.300    39514417.234 0 168546765.030 0        48.600
G15  22263958.805 0 116998107.965 0        41.300                                                    22264005.500 0  91167385.968 0        13.900    22263962.410 0  91167418.113 0        42.400
C42  23015459.793 0 120947027.953 0        48.500    23015467.047 0  90317589.540 0        52.100    23015459.555 0 119847503.497 0        44.900                                                    23015459.555 0  97385939.924 0        50.300    23015464.891 0  92673740.205 0        48.800
C58                                                                                                  33018724.672 0 171937157.513 0        37.700
I03  37331982.117 1 146498717.574 1        46.200
C60                                                                                                  37946245.180 0 197596058.300 0        43.000                                                    37946221.609 0 160562880.799 0        41.900    37946227.813 0 152793726.275 0        43.800
C59                                                                                                  37364003.766 0 194564172.567 0        38.800                                                    37363982.230 0 158099241.798 0        44.200    37363987.277 0 150449289.706 0        45.400
R02  20737355.445 0 110658517.676 0        50.000    20737354.301 0 110658524.675 0        48.600    20737358.930 0  86067746.624 0        47.000    20737358.355 0  86067740.590 0        48.200
G10  22955817.828 0 120633753.293 0        34.300                                                                                                    22955836.367 0  94000518.754 0        35.700    22955828.918 0  90083640.948 0        40.600
G24  20041588.383 0 105319250.017 0        49.500                                                    20041595.719 0  82066989.383 0        55.700    20041596.039 0  82066984.388 0        52.300    20041592.832 0  78647499.291 0        53.700
E05  26315037.086 0 138286332.266 0        43.300                                                                                                    26315004.656 0 104612681.240 0        30.700    26315033.242 0 112245475.992 0        41.800
E15  23997163.961 1 126105950.451 1        47.300    23997166.293 1  94170032.123 1        49.800    23997165.008 1  96626626.263 1        50.200    23997167.508 1  95398302.988 1        53.300    23997159.441 1 102358670.426 1        50.800
E13  26272003.859 0 138060466.652 0        28.300    26272026.250 0 103097052.733 0        38.000    26272024.480 0 105786540.029 0        36.800    26272026.227 0 104441812.180 0        41.900    26272019.227 0 112061962.584 0        29.100
E24  27795966.102 0 146068806.185 0        37.000                                                                                                    27795963.629 0 110500089.781 0        34.200    27795958.473 0 118562288.696 0        34.800
E08  23899857.148 1 125594822.83011        27.800    23899899.617 1  93788158.518 1        32.700                                                    23899860.578 1  95011531.71111        25.300
E03  24028740.961 1 126271950.251 1        51.700    24028743.141 1  94293958.563 1        49.800    24028740.672 1  96753663.217 1        50.800    24028743.832 1  95523895.681 1        53.800    24028735.691 1 102493543.213 1        51.500
> 2021 12 19  1 22 41.0000000  0 33       0.000000004000
C33  23113240.973 0 121461082.721 0        34.300    23113263.609 0  90701392.455 0        44.100    23113235.438 0 120356703.026 0        35.900                                                    23113243.805 0  97799672.778 0        42.500    23113260.879 0  93067464.568 0        41.600
C26  23168195.273 0 121749672.292 0        40.400    23168195.996 0  90917150.178 0        41.800    23168196.773 0 120642670.065 0        38.500                                                    23168189.574 0  98032176.160 0        41.600    23168194.078 0  93288685.779 0        39.600
C24  22907191.297 0 120378098.205 0        46.800    22907186.605 0  89892720.890 0        53.000    22907191.633 0 119283766.033 0        45.400                                                    22907180.105 0  96927834.541 0        50.100    22907184.461 0  92237726.740 0        50.200
C16                                                                                                  36186531.641 1 188432756.771 1        44.300    36186529.035 1 145708147.772 1        45.600    36186522.262 1 153117060.761 1        44.100
C14                                                                                                  22074350.820 1 114946912.227 1        45.500    22074343.535 1  88884241.070 1        46.600    22074338.555 1  93403804.668 1        50.500
C13                                                                                                  35818337.070 1 186515523.506 1        44.900    35818336.004 1 144225570.432 1        44.700    35818329.141 1 151559074.266 1        45.700
C09                                                                                                  37071551.008 1 193041328.914 1        40.500    37071545.113 1 149271758.820 1        44.700    37071538.633 1 156861842.564 1        43.400
C06                                                                                                  36112154.086 1 188045470.272 1        40.900    36112145.688 1 145408657.758 1        46.500    36112141.063 1 152802313.702 1        45.400
C05                                                                                                  39256407.055 1 204418419.748 1        33.600    39256400.363 1 158069260.348 1        37.700    39256396.660 1 166106656.312 1        33.600
C03                                                                                                  36687734.844 0 191042625.330 0        37.500    36687716.871 0 147726243.110 0        38.400    36687714.230 0 155237726.471 0        31.200
C02                                                                                                  37384818.375 0 194672563.117 0        35.100    37384809.148 0 150533132.387 0        39.600    37384807.910 0 158187354.551 0        35.900
C01                                                                                                  37733179.938 0 196486568.566 0        38.300    37733173.301 0 151935848.768 0        40.000    37733169.824 0 159661441.627 0        37.200
R17  21638996.930 0 115794658.200 0        35.900
R12  20723378.164 0 110700541.363 0        39.900    20723407.344 0 110700643.439 0        36.400    20723385.816 0  86100382.853 0        31.600    20723401.727 0  86100554.007 0        34.400
C38  36326118.098 1 190894986.035 1        46.500    36326114.488 1 142551458.307 1        51.400    36326118.336 1 189159573.830 1        45.500                                                    36326107.469 1 153707648.842 1        48.500    36326112.086 1 146270197.834 1        47.500
G18  20750667.586 0 109045459.516 0        36.600    20750672.852 0 109045455.497 0        39.400                                                    20750687.848 0  84970505.188 0        36.300    20750672.199 0  81430038.364 0        38.800
J07  36952226.406 0 194185241.916 0        40.700    36952224.660 0 194185269.901 0        44.300    36952219.895 0 194185302.764 0        46.800    36952232.188 0 151313219.049 0        52.100    36952232.398 0 145008495.092 0        53.200
J01  39514332.313 0 207649233.533 0        45.800    39514330.926 0 207649228.534 0        49.700    39514328.789 0 207649261.778 0        45.800    39514337.309 0 161804613.351 0        50.000    39514336.270 0 155062755.053 0        52.200    39514331.328 0 168546398.697 0        48.400
G15  22264404.203 0 117000440.831 0        42.400                                                    22264448.820 0  91169203.886 0        15.600    22264406.605 0  91169235.934 0        42.200
C42  23015595.461 0 120947741.759 0        48.300    23015602.824 0  90318122.575 0        51.500    23015595.625 0 119848210.814 0        44.600                                                    23015595.355 0  97386514.678 0        50.500    23015600.730 0  92674287.145 0        48.600
C58                                                                                                  33019098.672 0 171939105.246 0        38.100
I03  37331978.250 1 146498703.132 1        45.900
C60                                                                                                  37946254.711 0 197596107.382 0        43.000                                                    37946230.934 0 160562920.680 0        42.000    37946237.184 0 152793764.225 0        43.900
C59                                                                                                  37364001.305 0 194564159.971 0        39.000                                                    37363979.793 0 158099231.562 0        44.300    37363984.852 0 150449279.968 0        45.400
R02  20737484.789 0 110659209.183 0        49.600    20737483.750 0 110659216.175 0        48.200    20737487.727 0  86068284.451 0        46.700    20737487.910 0  86068278.424 0        48.400
G10  22955300.805 0 120631030.050 0        35.000                                                                                                    22955318.559 0  93998396.729 0        36.000    22955310.719 0  90081607.356 0        40.500
G24  20041699.359 0 105319833.872 0        49.700                                                    20041706.926 0  82067444.332 0        55.900    20041707.059 0  82067439.337 0        52.300    20041703.895 0  78647935.284 0        53.700
E05  26315346.539 0 138287960.115 0        42.800                                                                                                    26315314.504 0 104613912.748 0        31.100    26315343.266 0 112246797.310 0        42.400
E15  23997346.711 1 126106911.245 1        47.500    23997349.109 1  94170749.609 1        49.700    23997347.645 1  96627362.460 1        50.300    23997350.344 1  95399029.829 1        53.200    23997342.148 1 102359450.288 1        51.000
E13  26271689.688 0 138058824.550 0        26.300    26271713.160 0 103095826.442 0        37.700    26271711.418 0 105785281.753 0        37.100    26271713.699 0 104440569.899 0        41.900    26271707.598 0 112060629.645 0        27.800
E24  27796027.594 0 146069130.827 0        37.800                                                                                                    27796025.703 0 110500335.337 0        34.700    27796020.480 0 118562552.195 0        35.300
E08  23899629.484 1 125593626.796 1        27.800    23899672.293 1  93787265.370 1        31.900                                                    23899633.133 1  95010626.92311        25.600
E03  24028808.742 1 126272305.982 1        51.800    24028810.910 1  94294224.212 1        49.900    24028808.355 1  96753935.790 1        50.600    24028811.535 1  95524164.789 1        53.800    24028803.402 1 102493831.955 1        51.600
> 2021 12 19  1 22 42.0000000  0 33       0.000000004000
C33  23112999.367 0 121459813.422 0        33.800    23113022.176 0  90700444.570 0        43.800    23112992.227 0 120355445.234 0        35.800                                                    23113002.184 0  97798650.716 0        42.300    23113019.422 0  93066491.963 0        41.100
C26  23168382.012 0 121750661.769 0        40.900    23168384.332 0  90917889.076 0        41.900    23168384.672 0 120643650.531 0        38.300                                                    23168377.910 0  98032972.870 0        41.800    23168382.262 0  93289443.940 0        39.500
C24  22906853.652 0 120376324.815 0        46.200    22906849.195 0  89891396.605 0        53.000    22906854.305 0 119282008.760 0        45.500                                                    22906842.652 0  96926406.611 0        50.000    22906847.020 0  92236367.909 0        50.200
C16                                                                                                  36186569.711 1 188432955.706 1        44.100    36186567.160 1 145708301.604 1        45.200    36186560.406 1 153117222.408 1        44.300
C14                                                                                                  22074308.414 1 114946690.977 1        45.600    22074300.859 1  88884069.986 1        47.000    22074296.039 1  93403624.885 1        50.700
C13                                                                                                  35818376.289 1 186515726.832 1        45.000    35818374.992 1 144225727.655 1        44.700    35818368.129 1 151559239.475 1        46.000
C09                                                                                                  37071540.305 1 193041272.251 1        40.300    37071534.059 1 149271715.009 1        44.600    37071527.738 1 156861796.522 1        43.400
C06                                                                                                  36112158.172 1 188045493.292 1        40.900    36112150.145 1 145408675.569 1        46.600    36112145.477 1 152802332.415 1        45.500
C05                                                                                                  39256408.227 1 204418424.384 1        33.500    39256401.309 1 158069263.940 1        37.900    39256397.465 1 166106660.075 1        33.900
C03                                                                                                  36687742.281 0 191042664.195 0        37.700    36687724.203 0 147726273.165 0        37.700    36687721.727 0 155237758.058 0        31.200
C02                                                                                                  37384820.516 0 194672572.257 0        35.600    37384811.027 0 150533139.457 0        39.600    37384809.637 0 158187361.976 0        35.300
C01                                                                                                  37733183.789 0 196486587.099 0        38.400    37733177.031 0 151935863.099 0        40.100    37733173.332 0 159661456.686 0        37.600
R17  21639658.125 0 115798205.829 0        36.400
R12  20723407.484 0 110700685.605 0        39.200    20723434.223 0 110700787.666 0        36.200    20723418.379 0  86100495.061 0        30.000    20723428.457 0  86100666.206 0        34.500
C38  36326269.070 1 190895779.937 1        46.500    36326265.590 1 142552051.151 1        51.200    36326269.594 1 189160360.500 1        45.600                                                    36326258.492 1 153708288.071 1        48.100    36326263.207 1 146270806.136 1        47.500
G18  20750984.461 0 109047121.847 0        38.100    20750989.328 0 109047117.855 0        40.300                                                    20751004.133 0  84971800.551 0        36.800    20750991.211 0  81431279.662 0        39.200
J07  36952226.453 0 194185239.398 0        40.800    36952224.309 0 194185267.396 0        44.400    36952219.566 0 194185300.248 0        46.900    36952231.844 0 151313217.096 0        52.100    36952231.926 0 145008493.229 0        53.200
J01  39514246.703 0 207648782.231 0        45.900    39514245.043 0 207648777.225 0        49.600    39514242.980 0 207648810.477 0        45.600    39514251.504 0 161804261.683 0        49.900    39514250.398 0 155062418.036 0        51.900    39514245.395 0 168546032.377 0        48.400
G15  22264847.875 0 117002773.871 0        43.700                                                    22264892.059 0  91171021.832 0        17.400    22264850.629 0  91171053.886 0        42.600
C42  23015731.441 0 120948455.810 0        48.400    23015738.707 0  90318655.792 0        51.400    23015731.906 0 119848918.373 0        44.800                                                    23015731.211 0  97387089.625 0        50.300    23015736.633 0  92674834.272 0        48.700
C58                                                                                                  33019472.742 0 171941053.388 0        38.000
I03  37331974.656 1 146498688.775 1        46.000
C60                                                                                                  37946264.133 0 197596156.573 0        43.000                                                    37946240.422 0 160562960.649 0        41.800    37946246.648 0 152793802.260 0        43.600
C59                                                                                                  37363998.891 0 194564147.472 0        38.700                                                    37363977.477 0 158099221.401 0        43.900    37363982.469 0 150449270.296 0        45.700
R02  20737614.234 0 110659900.905 0        49.300    20737613.547 0 110659907.897 0        48.600    20737618.281 0  86068822.452 0        47.300    20737617.539 0  86068816.425 0        48.800
G10  22954784.625 0 120628306.976 0        35.100                                                                                                    22954800.395 0  93996274.823 0        37.000    22954792.461 0  90079573.850 0        40.700
G24  20041810.422 0 105320418.516 0        49.800                                                    20041818.141 0  82067899.905 0        55.400    20041818.242 0  82067894.903 0        51.900    20041815.176 0  78648371.869 0        53.900
E05  26315655.805 0 138289588.079 0        42.400                                                                                                    26315624.359 0 104615144.297 0        30.600    26315653.215 0 112248118.716 0        42.600
E15  23997529.805 1 126107872.618 1        47.400    23997531.902 1  94171467.508 1        49.400    23997530.453 1  96628099.088 1        49.700    23997533.277 1  95399757.094 1        53.300    23997525.352 1 102360230.623 1        51.000
E13  26271375.664 0 138057182.908 0        25.100    26271400.676 0 103094600.505 0        37.800    26271398.250 0 105784023.828 0        37.500    26271401.254 0 104439327.968 0        41.900    26271395.805 0 112059297.098 0        27.100
E24  27796088.656 0 146069455.900 0        38.300                                                                                                    27796087.852 0 110500581.258 0        34.600    27796082.672 0 118562816.044 0        35.400
E08  23899400.844 1 125592430.84711        28.600    23899444.773 1  93786372.349 1        31.100                                                    23899405.707 1  95009722.21411        24.800
E03  24028876.445 1 126272661.872 1        51.900    24028878.551 1  94294489.976 1        50.300    24028875.992 1  96754208.482 1        50.300    24028879.211 1  95524434.021 1        53.800    24028870.938 1 102494120.823 1        51.600
> 2021 12 19  1 22 43.0000000  0 33       0.000000004000
C33  23112757.703 0 121458544.066 0        34.100    23112780.465 0  90699496.670 0        43.700    23112750.867 0 120354187.429 0        36.800                                                    23112760.492 0  97797628.640 0        42.500    23112777.898 0  93065519.343 0        41.500
C26  23168570.313 0 121751651.710 0        42.000    23168572.430 0  90918628.345 0        42.100    23168572.547 0 120644631.494 0        38.000                                                    23168566.234 0  98033769.979 0        41.600    23168570.512 0  93290202.477 0        36.500
C24  22906516.270 0 120374551.810 0        46.400    22906511.730 0  89890072.611 0        53.400    22906516.914 0 119280251.885 0        45.600                                                    22906505.297 0  96924979.011 0        49.800    22906509.629 0  92235009.379 0        50.600
C16                                                                                                  36186608.086 1 188433154.647 1        44.100    36186605.410 1 145708455.433 1        45.200    36186598.664 1 153117384.061 1        44.500
C14                                                                                                  22074266.063 1 114946469.807 1        45.500    22074258.461 1  88883898.964 1        47.500    22074253.520 1  93403445.163 1        50.500
C13                                                                                                  35818415.297 1 186515930.286 1        44.900    35818414.094 1 144225884.981 1        45.200    35818407.258 1 151559404.803 1        45.700
C09                                                                                                  37071529.281 1 193041215.626 1        40.600    37071523.324 1 149271671.221 1        44.500    37071516.934 1 156861750.509 1        43.800
C06                                                                                                  36112162.688 1 188045516.346 1        40.800    36112154.375 1 145408693.391 1        46.300    36112149.859 1 152802351.139 1        45.000
C05                                                                                                  39256408.914 1 204418428.984 1        33.500    39256402.328 1 158069267.508 1        37.200    39256398.684 1 166106663.813 1        33.100
C03                                                                                                  36687749.914 0 191042703.015 0        37.200    36687731.930 0 147726303.181 0        37.600    36687729.152 0 155237789.595 0        32.100
C02                                                                                                  37384821.992 0 194672581.35010        35.400    37384812.676 0 150533146.48110        39.500    37384811.293 0 158187369.37010        35.200
C01                                                                                                  37733187.375 0 196486605.592 0        38.300    37733180.383 0 151935877.401 0        39.400    37733176.914 0 159661471.715 0        37.500
R17  21640318.938 0 115801753.776 0        35.700
R12  20723437.641 0 110700830.663 0        38.400    20723461.211 0 110700932.731 0        36.300    20723453.477 0  86100607.984 0        28.500    20723455.582 0  86100779.041 0        34.500
C38  36326420.152 1 190896573.937 1        46.400    36326416.680 1 142552644.085 1        51.100    36326420.766 1 189161147.301 1        45.300                                                    36326409.594 1 153708927.411 1        48.200    36326414.336 1 146271414.543 1        47.500
G18  20751301.133 0 109048784.756 0        38.300    20751305.602 0 109048780.735 0        40.800                                                    20751320.270 0  84973096.326 0        37.200    20751312.813 0  81432521.375 0        39.500
J07  36952225.563 0 194185236.868 0        40.800    36952223.680 0 194185264.862 0        44.500    36952218.973 0 194185297.715 0        47.000    36952231.395 0 151313215.121 0        52.100    36952231.438 0 145008491.337 0        53.200
J01  39514160.625 0 207648330.787 0        46.100    39514159.258 0 207648325.774 0        49.600    39514157.094 0 207648359.032 0        45.500    39514165.719 0 161803909.906 0        50.200    39514164.543 0 155062080.919 0        52.000    39514159.539 0 168545665.945 0        48.500
G15  22265292.398 0 117005106.956 0        44.600                                                    22265335.273 0  91172839.828 0        17.800    22265294.387 0  91172871.857 0        42.200
C42  23015867.320 0 120949169.941 0        48.300    23015874.602 0  90319189.075 0        51.300    23015867.805 0 119849626.010 0        44.900                                                    23015867.027 0  97387664.641 0        50.500    23015872.629 0  92675381.460 0        48.800
C58                                                                                                  33019847.008 0 171943001.782 0        38.000
I03  37331971.641 1 146498674.396 1        45.500
C60                                                                                                  37946273.398 0 197596205.704 0        43.000                                                    37946249.844 0 160563000.572 0        41.700    37946256.082 0 152793840.253 0        43.700
C59                                                                                                  37363996.641 0 194564134.954 0        38.600                                                    37363975.051 0 158099211.232 0        43.900    37363980.043 0 150449260.616 0        45.300
R02  20737743.586 0 110660592.705 0        48.600    20737743.078 0 110660599.690 0        48.200    20737747.090 0  86069360.515 0        47.800    20737747.246 0  86069354.488 0        48.700
G10  22954266.945 0 120625583.831 0        36.800                                                    22954281.652 0  93993944.81410        27.400    22954282.410 0  93994152.900 0        37.000    22954274.059 0  90077540.348 0        41.000
G24  20041921.828 0 105321003.775 0        49.600                                                    20041929.582 0  82068355.949 0        55.400    20041929.535 0  82068350.954 0        51.900    20041926.566 0  78648808.920 0        54.100
E05  26315964.852 0 138291216.075 0        41.200                                                                                                    26315934.129 0 104616375.856 0        30.500    26315962.883 0 112249440.143 0        43.400
E15  23997712.375 1 126108834.376 1        47.000    23997715.184 1  94172185.711 1        49.100    23997713.590 1  96628836.029 1        49.600    23997716.320 1  95400484.666 1        53.100    23997708.438 1 102361011.271 1        51.100
E13  26271062.414 0 138055541.58610        24.800    26271088.621 0 103093374.850 0        37.500    26271084.988 0 105782766.207 0        37.300    26271088.875 0 104438086.322 0        41.700    26271083.992 0 112057964.85610        26.100
E24  27796149.953 0 146069781.522 0        37.400                                                                                                    27796150.277 0 110500827.554 0        35.500    27796144.723 0 118563080.357 0        35.200
E08  23899172.758 1 125591235.013 1        30.100    23899217.758 1  93785479.363 1        31.300                                                    23899178.211 1  95008817.52611        24.700
E03  24028944.227 1 126273017.779 1        51.800    24028946.320 1  94294755.746 1        49.800    24028943.793 1  96754481.196 1        50.500    24028946.992 1  95524703.264 1        53.800    24028938.707 1 102494409.713 1        51.600
> 2021 12 19  1 22 44.0000000  0 33       0.000000004000
C33  23112516.145 0 121457274.691 0        33.200    23112539.082 0  90698548.787 0        43.700    23112509.820 0 120352929.608 0        36.000                                                    23112518.887 0  97796606.557 0        41.700    23112536.438 0  93064546.724 0        41.300
C26  23168759.430 0 121752642.107 0        42.400    23168760.922 0  90919367.906 0        42.200    23168760.242 0 120645612.898 0        37.200                                                    23168754.785 0  98034567.445 0        41.400    23168758.930 0  93290961.355 0        37.500
C24  22906179.059 0 120372779.176 0        46.500    22906174.438 0  89888748.880 0        53.500    22906179.664 0 119278495.354 0        45.500                                                    22906168.035 0  96923551.681 0        49.700    22906172.320 0  92233651.118 0        50.700
C16                                                                                                  36186646.375 1 188433353.552 1        44.100    36186643.742 1 145708609.242 1        44.900    36186636.750 1 153117545.694 1        43.900
C14                                                                                                  22074223.492 1 114946248.660 1        45.200    22074215.965 1  88883727.960 1        47.500    22074210.977 1  93403265.465 1        50.500
C13                                                                                                  35818454.477 1 186516133.798 1        44.700    35818453.008 1 144226042.347 1        45.100    35818446.309 1 151559570.174 1        45.700
C09                                                                                                  37071518.445 1 193041158.967 1        40.200    37071512.441 1 149271627.399 1        44.600    37071506.086 1 156861704.468 1        43.700
C06                                                                                                  36112166.984 1 188045539.393 1        40.800    36112158.906 1 145408711.211 1        46.200    36112154.297 1 152802369.870 1        44.900
C05                                                                                                  39256409.883 1 204418433.469 1        33.400    39256403.027 1 158069270.968 1        37.300    39256399.520 1 166106667.452 1        34.000
C03                                                                                                  36687757.469 0 191042741.783 0        37.400    36687739.332 0 147726333.165 0        38.100    36687736.598 0 155237821.097 0        31.300
C02                                                                                                  37384823.703 0 194672590.364 0        35.600    37384814.242 0 150533153.452 0        39.700    37384813.051 0 158187376.696 0        35.100
C01                                                                                                  37733190.758 0 196486624.013 0        38.200    37733184.059 0 151935891.644 0        39.200    37733180.402 0 159661486.693 0        37.600
R17  21640980.695 0 115805301.978 0        35.700
R12  20723466.305 0 110700976.523 0        38.300    20723488.012 0 110701078.592 0        36.400    20723484.898 0  86100721.506 0        28.100    20723483.078 0  86100892.495 0        33.300
C38  36326571.281 1 190897368.012 1        46.800    36326567.730 1 142553237.061 1        50.900    36326571.672 1 189161934.158 1        45.300                                                    36326560.652 1 153709566.795 1        48.200    36326565.449 1 146272022.982 1        47.300
G18  20751617.508 0 109050448.126 0        38.800    20751622.387 0 109050444.120 0        41.300                                                    20751636.695 0  84974392.468 0        37.700    20751631.941 0  81433763.522 0        39.600
J07  36952224.859 0 194185234.240 0        40.600    36952223.309 0 194185262.223 0        44.400    36952218.551 0 194185295.087 0        47.000    36952230.852 0 151313213.067 0        51.800    36952230.871 0 145008489.370 0        52.900
J01  39514074.797 0 207647879.148 0        46.200    39514073.105 0 207647874.141 0        49.600    39514071.137 0 207647907.394 0        45.800    39514079.813 0 161803557.986 0        49.800    39514078.500 0 155061743.655 0        51.900    39514073.742 0 168545299.358 0        48.800
G15  22265736.984 0 117007440.020 0        45.200                                                    22265778.449 0  91174657.816 0        19.600    22265738.273 0  91174689.840 0        42.200
C42  23016003.023 0 120949884.130 0        48.200    23016010.398 0  90319722.386 0        51.400    23016003.602 0 119850333.701 0        44.900                                                    23016002.891 0  97388239.701 0        50.500    23016008.563 0  92675928.696 0        49.100
C58                                                                                                  33020221.266 0 171944950.325 0        38.200
I03  37331967.758 1 146498659.943 1        45.600
C60                                                                                                  37946283.016 0 197596254.752 0        43.000                                                    37946259.172 0 160563040.432 0        41.900    37946265.539 0 152793878.172 0        43.900
C59                                                                                                  37363994.055 0 194564122.316 0        38.600                                                    37363972.648 0 158099200.963 0        44.300    37363977.660 0 150449250.853 0        45.400
R02  20737873.875 0 110661284.535 0        48.800    20737872.645 0 110661291.526 0        48.100    20737877.453 0  86069898.601 0        48.200    20737876.918 0  86069892.574 0        48.200
G10  22953749.063 0 120622860.591 0        36.200                                                    22953763.066 0  93991822.820 0        27.500    22953763.609 0  93992030.899 0        38.000    22953755.703 0  90075506.760 0        41.200
G24  20042033.367 0 105321589.622 0        49.300                                                    20042041.059 0  82068812.456 0        55.700    20042041.094 0  82068807.454 0        51.900    20042038.039 0  78649246.397 0        54.300
E05  26316273.789 0 138292843.817 0        41.000                                                                                                    26316243.930 0 104617607.26910        29.900    26316272.770 0 112250761.363 0        42.900
E15  23997895.758 1 126109796.525 1        47.300    23997898.199 1  94172904.193 1        49.100    23997896.645 1  96629573.258 1        49.200    23997899.418 1  95401212.523 1        53.000    23997891.395 1 102361792.244 1        51.200
E13  26270749.273 0 138053900.54210        23.500    26270776.211 0 103092149.394 0        36.900    26270771.957 0 105781508.783 0        37.900    26270776.613 0 104436844.873 0        41.600    26270772.145 0 112056632.83010        25.200
E24  27796211.078 0 146070107.346 0        38.700                                                                                                    27796212.691 0 110501074.027 0        35.400    27796206.984 0 118563344.808 0        35.200
E08  23898944.633 1 125590039.216 1        29.600                                                                                                    23898950.676 1  95007912.84811        24.800    23898961.156 1 101939842.70111        27.600
E03  24029011.758 1 126273373.663 1        52.000    24029014.047 1  94295021.498 1        49.900    24029011.516 1  96754753.884 1        50.300    24029014.730 1  95524972.484 1        53.800    24029006.230 1 102494698.576 1        51.300
> 2021 12 19  1 22 45.0000000  0 33       0.000000004000
C33  23112274.793 0 121456005.487 0        34.300    23112297.527 0  90697600.980 0        43.500    23112271.023 0 120351671.897 0        36.300                                                    23112277.234 0  97795584.567 0        41.700    23112294.980 0  93063574.180 0        41.600
C26  23168948.805 0 121753633.074 0        43.100    23168949.570 0  90920107.909 0        42.200    23168947.961 0 120646594.855 0        36.800                                                    23168943.324 0  98035365.375 0        40.900    23168947.453 0  93291720.672 0        38.300
C24  22905841.875 0 120371007.022 0        46.700    22905837.195 0  89887425.520 0        53.100    22905842.320 0 119276739.311 0        45.500                                                    22905830.793 0  96922124.755 0        49.200    22905835.098 0  92232293.237 0        50.700
C16                                                                                                  36186684.250 1 188433552.571 1        44.100    36186681.934 1 145708763.132 1        45.000    36186675.047 1 153117707.414 1        43.800
C14                                                                                                  22074181.078 1 114946027.699 1        45.300    22074173.500 1  88883557.097 1        47.500    22074168.488 1  93403085.921 1        49.200
C13                                                                                                  35818493.539 1 186516337.561 1        44.900    35818492.176 1 144226199.903 1        45.000    35818485.305 1 151559735.743 1        45.600
C09                                                                                                  37071507.727 1 193041102.465 1        40.500    37071501.383 1 149271583.711 1        44.300    37071495.230 1 156861658.558 1        43.500
C06                                                                                                  36112171.688 1 188045562.541 1        40.900    36112163.480 1 145408729.113 1        46.500    36112158.746 1 152802388.685 1        44.600
C05                                                                                                  39256410.750 1 204418438.035 1        33.500    39256403.770 1 158069274.487 1        37.500    39256400.332 1 166106671.166 1        33.700
C03                                                                                                  36687764.867 0 191042780.595 0        37.200    36687746.688 0 147726363.166 0        37.500    36687744.121 0 155237852.637 0        31.200
C02                                                                                                  37384825.695 0 194672599.458 0        35.500    37384816.082 0 150533160.488 0        39.700    37384814.820 0 158187384.082 0        34.900
C01                                                                                                  37733194.047 0 196486642.470 0        38.400    37733187.477 0 151935905.916 0        39.000    37733183.922 0 159661501.683 0        37.300
R17  21641644.898 0 115808850.620 0        35.300
R12  20723479.289 0 110701123.330 0        37.700    20723515.848 0 110701225.406 0        36.300    20723514.270 0  86100835.717 0        28.700    20723510.672 0  86101006.700 0        33.600
C38  36326722.477 1 190898162.312 1        46.700    36326718.906 1 142553830.201 1        50.900    36326723.055 1 189162721.233 1        45.300                                                    36326711.801 1 153710206.360 1        47.600    36326716.605 1 146272631.599 1        47.500
G18  20751933.547 0 109052112.175 0        39.300    20751938.941 0 109052108.176 0        41.900                                                    20751952.660 0  84975689.166 0        37.900    20751948.441 0  81435006.158 0        40.200
J07  36952224.672 0 194185231.646 0        40.800    36952222.746 0 194185259.648 0        44.500    36952218.117 0 194185292.494 0        47.000    36952230.293 0 151313211.062 0        50.900    36952230.355 0 145008487.435 0        53.300
J01  39513988.922 0 207647427.479 0        46.800    39513987.117 0 207647422.479 0        49.600    39513985.031 0 207647455.725 0        45.500    39513993.746 0 161803206.036 0        48.900    39513992.566 0 155061406.374 0        51.900    39513987.484 0 168544932.737 0        48.100
G15  22266181.313 0 117009773.211 0        45.600                                                    22266221.785 0  91176475.895 0        20.400    22266182.516 0  91176507.897 0        41.700
C42  23016139.145 0 120950598.510 0        47.900    23016146.344 0  90320255.854 0        51.600    23016139.586 0 119851041.582 0        45.000                                                    23016138.898 0  97388814.907 0        49.900    23016144.582 0  92676476.070 0        49.100
C58                                                                                                  33020595.539 0 171946899.239 0        38.600
I03  37331964.055 1 146498645.550 1        46.000
C60                                                                                                  37946292.492 0 197596303.851 0        43.000                                                    37946268.672 0 160563080.325 0        41.800    37946275.000 0 152793916.141 0        43.200
C59                                                                                                  37363991.688 0 194564109.748 0        38.800                                                    37363970.105 0 158099190.755 0        44.100    37363975.242 0 150449241.133 0        45.200
R02  20738003.398 0 110661976.571 0        48.300    20738002.520 0 110661983.557 0        47.900    20738006.582 0  86070436.841 0        48.100    20738006.492 0  86070430.820 0        47.600
G10  22953231.578 0 120620137.511 0        37.200                                                    22953244.805 0  93989700.954 0        29.100    22953245.914 0  93989909.004 0        37.900    22953237.461 0  90073473.270 0        41.300
G24  20042145.023 0 105322176.199 0        49.100                                                    20042152.711 0  82069269.528 0        55.500    20042152.871 0  82069264.525 0        50.800    20042149.625 0  78649684.425 0        54.100
E05  26316582.852 0 138294471.675 0        40.000                                                                                                    26316553.730 0 104618838.707 0        29.700    26316582.723 0 112252082.684 0        42.700
E15  23998078.789 1 126110759.187 1        47.200    23998081.285 1  94173623.062 1        49.200    23998079.785 1  96630310.876 1        49.200    23998082.617 1  95401940.760 1        53.200    23998074.504 1 102362573.626 1        51.000
E13  26270436.242 0 138052260.055 0        22.100    26270464.363 0 103090924.296 0        36.900    26270459.051 0 105780251.732 0        38.600    26270464.438 0 104435603.801 0        42.000    26270460.391 0 112055301.197 0        25.200
E24  27796272.492 0 146070433.777 0        39.700                                                                                                    27796275.145 0 110501320.967 0        35.800    27796268.871 0 118563609.770 0        35.500
E08  23898717.289 1 125588843.44211        29.900                                                                                                    23898723.164 1  95007008.25411        24.900    23898733.996 1 101938872.09111        27.400
E03  24029079.563 1 126273729.658 1        51.900    24029081.801 1  94295287.342 1        49.800    24029079.316 1  96755026.661 1        50.300    24029082.473 1  95525241.793 1        53.900    24029073.746 1 102494987.530 1        51.200
> 2021 12 19  1 22 46.0000000  0 33       0.000000004000
C33  23112033.461 0 121454736.323 0        34.600    23112055.984 0  90696653.243 0        43.600    23112031.031 0 120350414.306 0        36.200                                                    23112035.648 0  97794562.676 0        42.000    23112053.520 0  93062601.729 0        41.300
C26  23169137.781 0 121754624.600 0        42.800    23169137.945 0  90920848.342 0        42.200    23169136.219 0 120647577.343 0        36.300                                                    23169131.996 0  98036163.733 0        41.400    23169136.063 0  93292480.393 0        39.100
C24  22905504.832 0 120369235.332 0        46.600    22905500.063 0  89886102.510 0        53.200    22905505.055 0 119274983.730 0        45.400                                                    22905493.711 0  96920698.206 0        49.700    22905497.961 0  92230935.709 0        50.300
C16                                                                                                  36186722.539 1 188433751.654 1        44.300    36186720.133 1 145708917.078 1        45.000    36186713.207 1 153117869.180 1        44.000
C14                                                                                                  22074138.648 1 114945806.874 1        45.200    22074131.090 1  88883386.342 1        47.300    22074126.027 1  93402906.476 1        49.700
C13                                                                                                  35818532.563 1 186516541.529 1        44.800    35818531.430 1 144226357.621 1        45.200    35818524.473 1 151559901.485 1        45.300
C09                                                                                                  37071496.781 1 193041046.061 1        40.400    37071490.410 1 149271540.096 1        44.400    37071484.402 1 156861612.719 1        43.700
C06                                                                                                  36112176.180 1 188045585.795 1        40.600    36112167.766 1 145408747.096 1        46.700    36112163.277 1 152802407.581 1        44.800
C05                                                                                                  39256411.453 1 204418442.613 1        33.700    39256404.539 1 158069278.033 1        37.600    39256401.219 1 166106674.888 1        34.100
C03                                                                                                  36687771.891 0 191042819.420 0        37.300    36687753.809 0 147726393.180 0        37.800    36687751.461 0 155237884.187 0        31.400
C02                                                                                                  37384827.273 0 194672608.552 0        35.500    37384817.922 0 150533167.513 0        39.700    37384816.469 0 158187391.461 0        35.900
C01                                                                                                  37733197.930 0 196486660.940 0        38.400    37733191.043 0 151935920.199 0        38.500    37733187.500 0 159661516.685 0        37.100
R17  21642307.742 0 115812399.620 0        34.600
R12  20723510.906 0 110701271.055 0        37.900    20723543.949 0 110701373.123 0        36.900    20723541.801 0  86100950.590 0        32.200    20723538.457 0  86101121.595 0        34.600
C38  36326873.762 1 190898956.795 1        46.400    36326870.102 1 142554423.483 1        51.200    36326873.992 1 189163508.491 1        45.300                                                    36326862.980 1 153710846.073 1        47.900    36326867.781 1 146273240.359 1        47.300
G18  20752250.563 0 109053776.836 0        39.900    20752255.613 0 109053772.815 0        42.600                                                    20752268.738 0  84976986.302 0        39.100    20752264.102 0  81436249.251 0        40.900
J07  36952224.500 0 194185229.099 0        41.300    36952222.316 0 194185257.098 0        44.300    36952217.492 0 194185289.947 0        46.800    36952229.699 0 151313209.072 0        51.300    36952229.930 0 145008485.537 0        53.800
J01  39513902.906 0 207646975.737 0        46.900    39513901.238 0 207646970.736 0        49.600    39513899.277 0 207647003.981 0        45.500    39513907.918 0 161802854.032 0        49.500    39513906.590 0 155061069.035 0        52.100    39513901.656 0 168544566.067 0        48.400
G15  22266625.727 0 117012106.499 0        46.300                                                    22266664.973 0  91178294.064 0        21.100    22266626.254 0  91178326.046 0        42.000
C42  23016274.840 0 120951313.044 0        47.800    23016282.316 0  90320789.433 0        51.900    23016275.688 0 119851749.616 0        45.000                                                    23016274.852 0  97389390.250 0        49.900    23016280.629 0  92677023.573 0        49.300
C58                                                                                                  33020969.711 0 171948848.433 0        38.100
I03  37331960.891 1 146498631.179 1        46.100
C60                                                                                                  37946301.711 0 197596352.973 0        43.000                                                    37946278.086 0 160563120.241 0        41.800    37946284.414 0 152793954.126 0        43.600
C59                                                                                                  37363989.375 0 194564097.195 0        38.900                                                    37363967.699 0 158099180.556 0        44.500    37363972.844 0 150449231.426 0        45.100
R02  20738133.102 0 110662668.752 0        48.300    20738131.988 0 110662675.730 0        48.200    20738136.441 0  86070975.184 0        48.600    20738136.262 0  86070969.171 0        48.200
G10  22952714.805 0 120617414.450 0        37.800                                                    22952726.523 0  93987579.104 0        29.600    22952727.820 0  93987787.123 0        38.200    22952719.418 0  90071439.811 0        40.700
G24  20042256.875 0 105322763.466 0        49.200                                                    20042264.461 0  82069727.135 0        55.600    20042264.375 0  82069722.141 0        51.200    20042261.379 0  78650122.969 0        54.700
E05  26316891.781 0 138296099.391 0        39.200                                                                                                    26316863.441 0 104620070.08310        29.000    26316892.332 0 112253403.892 0        42.700
E15  23998262.055 1 126111722.330 1        47.000    23998264.594 1  94174342.288 1        49.300    23998262.992 1  96631048.865 1        49.400    23998265.898 1  95402669.369 1        53.200    23998257.891 1 102363355.397 1        50.800
E13  26270123.195 0 138050620.032 0        21.600    26270152.262 0 103089699.501 0        36.500    26270146.152 0 105778994.985 0        38.600    26270152.340 0 104434363.044 0        41.800    26270148.691 0 112053969.905 0        25.000
E24  27796333.938 0 146070760.589 0        40.100                                                                                                    27796337.613 0 110501568.185 0        36.200    27796331.137 0 118563875.044 0        35.500
E08  23898489.813 1 125587647.809 1        30.600                                                                                                    23898495.723 1  95006103.75711        24.800    23898507.293 1 101937901.613 1        27.900
E03  24029147.313 1 126274085.749 1        52.000    24029149.539 1  94295553.255 1        50.200    24029147.133 1  96755299.513 1        50.600    24029150.250 1  95525511.177 1        54.200    24029141.371 1 102495276.568 1        51.500
> 2021 12 19  1 22 47.0000000  0 33       0.000000004000
C33  23111791.602 0 121453467.208 0        35.000    23111814.520 0  90695705.508 0        43.300    23111790.531 0 120349156.692 0        36.000                                                    23111794.055 0  97793540.767 0        42.100    23111812.086 0  93061629.270 0        41.600
C26  23169326.855 0 121755616.619 0        43.000    23169326.629 0  90921589.129 0        42.600    23169326.578 0 120648560.319 0        36.300                                                    23169320.801 0  98036962.497 0        41.200    23169324.766 0  93293240.507 0        39.300
C24  22905167.621 0 120367464.045 0        47.000    22905162.992 0  89884779.796 0        53.100    22905168.156 0 119273228.552 0        45.500                                                    22905156.668 0  96919271.975 0        50.000    22905160.887 0  92229578.492 0        50.500
C16                                                                                                  36186760.961 1 188433950.757 1        44.200    36186758.445 1 145709071.039 1        45.200    36186751.383 1 153118030.970 1        43.700
C14                                                                                                  22074096.164 1 114945586.152 1        45.300    22074088.855 1  88883215.666 1        47.300    22074083.613 1  93402727.121 1        50.100
C13                                                                                                  35818571.750 1 186516745.598 1        45.000    35818570.773 1 144226515.426 1        45.200    35818563.730 1 151560067.305 1        45.400
C09                                                                                                  37071485.891 1 193040989.720 1        40.500    37071479.801 1 149271496.526 1        44.300    37071473.582 1 156861566.938 1        43.900
C06                                                                                                  36112180.648 1 188045609.079 1        40.900    36112172.289 1 145408765.097 1        46.300    36112167.711 1 152802426.499 1        45.000
C05                                                                                                  39256412.203 1 204418447.176 1        33.700    39256405.199 1 158069281.560 1        37.600    39256402.027 1 166106678.596 1        32.900
C03                                                                                                  36687780.016 0 191042858.185 0        37.400    36687761.051 0 147726423.161 0        37.900    36687758.867 0 155237915.687 0        32.200
C02                                                                                                  37384828.883 0 194672617.597 0        35.500    37384819.723 0 150533174.510 0        40.000    37384818.207 0 158187398.809 0        35.400
C01                                                                                                  37733201.242 0 196486679.386 0        38.300    37733194.426 0 151935934.461 0        38.700    37733191.078 0 159661531.680 0        37.100
R17  21642971.203 0 115815948.905 0        33.000
R12  20723543.633 0 110701419.602 0        37.500    20723571.660 0 110701521.655 0        37.000    20723567.066 0  86101066.178 0        33.800    20723566.234 0  86101237.130 0        34.100
C38  36327025.035 1 190899751.394 1        46.800    36327021.281 1 142555016.856 1        51.200    36327025.422 1 189164295.862 1        45.200                                                    36327014.227 1 153711485.872 1        48.200    36327019.027 1 146273849.199 1        47.700
G18  20752567.680 0 109055442.032 0        40.600    20752572.414 0 109055438.033 0        42.800                                                    20752585.355 0  84978283.879 0        39.500    20752579.949 0  81437492.758 0        41.700
J07  36952224.016 0 194185226.525 0        41.300    36952221.859 0 194185254.513 0        44.600    36952216.977 0 194185287.374 0        46.900    36952229.199 0 151313207.052 0        51.700    36952229.508 0 145008483.597 0        53.600
J01  39513817.141 0 207646523.873 0        46.700    39513815.379 0 207646518.874 0        49.600    39513813.113 0 207646552.118 0        45.700    39513821.809 0 161802501.925 0        49.600    39513820.715 0 155060731.605 0        52.400    39513815.621 0 168544199.291 0        48.400
G15  22267070.391 0 117014439.840 0        46.600                                                    22267108.297 0  91180112.238 0        21.500    22267070.328 0  91180144.232 0        41.800
C42  23016410.910 0 120952027.693 0        47.700    23016418.316 0  90321323.094 0        51.700    23016411.625 0 119852457.761 0        45.100                                                    23016410.875 0  97389965.675 0        50.200    23016416.703 0  92677571.160 0        49.000
C58                                                                                                  33021344.281 0 171950797.886 0        38.300
I03  37331956.594 1 146498616.768 1        45.400
C60                                                                                                  37946311.094 0 197596402.037 0        43.000                                                    37946287.465 0 160563160.111 0        41.700    37946293.816 0 152793992.067 0        43.800
C59                                                                                                  37363986.773 0 194564084.613 0        38.900                                                    37363965.293 0 158099170.330 0        44.700    37363970.410 0 150449221.693 0        45.300
R02  20738262.852 0 110663360.973 0        48.100    20738261.629 0 110663367.943 0        48.200    20738266.039 0  86071513.571 0        48.800    20738265.992 0  86071507.566 0        47.800
G10  22952197.773 0 120614691.371 0        37.800                                                    22952208.609 0  93985457.223 0        29.000    22952208.965 0  93985665.246 0        38.400    22952201.285 0  90069406.330 0        40.800
G24  20042368.719 0 105323351.368 0        49.100                                                    20042376.371 0  82070185.242 0        55.600    20042376.422 0  82070180.254 0        51.300    20042373.262 0  78650561.993 0        54.500
E05  26317200.891 0 138297727.157 0        37.900                                                                                                    26317173.188 0 104621301.498 0        28.600    26317202.184 0 112254725.143 0        43.000
E15  23998445.227 1 126112685.882 1        46.800    23998447.918 1  94175061.822 1        49.200    23998446.320 1  96631787.174 1        49.500    23998449.258 1  95403398.293 1        53.300    23998441.168 1 102364137.497 1        51.200
E13  26269810.531 0 138048980.321 0        21.100    26269840.313 0 103088474.980 0        36.500    26269833.527 0 105777738.497 0        38.900    26269840.293 0 104433122.534 0        41.800    26269836.727 0 112052638.897 0        25.700
E24  27796395.789 0 146071087.829 0        40.600                                                                                                    27796400.172 0 110501815.727 0        36.800    27796393.258 0 118564140.664 0        35.800
E08  23898262.719 1 125586452.266 1        31.100                                                                                                    23898268.254 1  95005199.30411        25.300    23898280.570 1 101936931.208 1        27.600
E03  24029215.133 1 126274441.856 1        51.900    24029217.367 1  94295819.175 1        50.100    24029214.848 1  96755572.370 1        50.900    24029218.012 1  95525780.563 1        54.300    24029209.016 1 102495565.612 1        51.400
> 2021 12 19  1 22 48.0000000  0 33       0.000000004000
C33  23111550.012 0 121452198.167 0        35.200    23111572.953 0  90694757.843 0        43.400    23111548.734 0 120347899.188 0        35.900                                                    23111552.582 0  97792518.937 0        41.700    23111570.684 0  93060656.879 0        41.700
C26  23169516.281 0 121756609.179 0        43.200    23169515.383 0  90922330.319 0        42.800    23169516.820 0 120649543.812 0        36.500                                                    23169509.773 0  98037761.679 0        41.400    23169513.629 0  93294001.018 0        39.500
C24  22904830.816 0 120365693.234 0        47.000    22904825.941 0  89883457.434 0        53.200    22904831.008 0 119271473.829 0        45.600                                                    22904819.715 0  96917846.121 0        49.800    22904823.891 0  92228221.632 0        50.600
C16                                                                                                  36186799.477 1 188434149.943 1        44.400    36186796.727 1 145709225.061 1        44.800    36186789.672 1 153118192.828 1        43.900
C14                                                                                                  22074053.977 1 114945365.554 1        45.100    22074046.406 1  88883045.081 1        47.600    22074041.180 1  93402547.866 1        50.200
C13                                                                                                  35818610.930 1 186516949.868 1        44.900    35818609.762 1 144226673.375 1        45.300    35818602.949 1 151560233.287 1        45.700
C09                                                                                                  37071474.750 1 193040933.437 1        40.400    37071468.898 1 149271453.011 1        44.200    37071462.793 1 156861521.206 1        43.900
C06                                                                                                  36112185.047 1 188045632.450 1        41.000    36112176.863 1 145408783.172 1        45.700    36112172.262 1 152802445.489 1        45.200
C05                                                                                                  39256413.523 1 204418451.755 1        34.000    39256406.215 1 158069285.102 1        37.500    39256402.848 1 166106682.324 1        33.100
C03                                                                                                  36687786.984 0 191042897.004 0        37.600    36687768.637 0 147726453.182 0        37.900    36687765.926 0 155237947.227 0        33.100
C02                                                                                                  37384830.656 0 194672626.702 0        35.500    37384821.633 0 150533181.550 0        40.000    37384819.965 0 158187406.211 0        35.800
C01                                                                                                  37733204.820 0 196486697.854 0        38.600    37733198.039 0 151935948.737 0        38.800    37733194.598 0 159661546.680 0        37.500
R17  21643633.625 0 115819498.571 0        31.900
R12  20723575.883 0 110701569.025 0        37.300    20723600.148 0 110701671.049 0        37.200    20723594.168 0  86101182.432 0        35.600    20723594.254 0  86101353.340 0        33.700
C38  36327176.148 1 190900546.168 1        46.800    36327172.555 1 142555610.360 1        51.000    36327176.289 1 189165083.421 1        45.200                                                    36327165.422 1 153712125.825 1        48.300    36327170.238 1 146274458.186 1        47.200
G18  20752884.859 0 109057107.849 0        40.400    20752889.379 0 109057103.857 0        43.000                                                    20752901.438 0  84979581.935 0        40.100    20752895.887 0  81438736.734 0        42.100
J07  36952223.078 0 194185223.938 0        41.800    36952221.457 0 194185251.951 0        44.500    36952216.570 0 194185284.785 0        47.000    36952228.695 0 151313205.050 0        52.100    36952228.965 0 145008481.674 0        53.600
J01  39513730.844 0 207646071.925 0        46.500    39513729.402 0 207646066.925 0        49.600    39513727.133 0 207646100.178 0        45.800    39513735.621 0 161802149.768 0        49.900    39513734.637 0 155060394.108 0        52.100    39513729.563 0 168543832.454 0        48.400
G15  22267514.820 0 117016773.267 0        46.800                                                    22267551.504 0  91181930.469 0        22.200    22267514.113 0  91181962.478 0        42.300
C42  23016546.863 0 120952742.486 0        47.800    23016554.316 0  90321856.866 0        51.900    23016547.766 0 119853166.045 0        45.000                                                    23016546.820 0  97390541.216 0        50.700    23016552.797 0  92678118.848 0        49.300
C58                                                                                                  33021718.828 0 171952747.640 0        37.700
I03  37331952.922 1 146498602.394 1        45.600
C60                                                                                                  37946320.555 0 197596451.138 0        43.000                                                    37946296.922 0 160563200.008 0        41.800    37946303.246 0 152794030.034 0        43.200
C59                                                                                                  37363984.320 0 194564072.050 0        38.800                                                    37363962.859 0 158099160.113 0        44.100    37363968.016 0 150449211.973 0        45.500
R02  20738392.195 0 110664053.280 0        47.600    20738391.172 0 110664060.264 0        47.900    20738395.805 0  86072052.035 0        49.100    20738395.738 0  86072046.023 0        48.200
G10  22951680.336 0 120611968.347 0        37.500                                                    22951690.508 0  93983335.384 0        30.000    22951690.496 0  93983543.410 0        38.600    22951683.203 0  90067372.932 0        40.900
G24  20042480.773 0 105323939.960 0        49.100                                                    20042488.434 0  82070643.887 0        55.600    20042488.438 0  82070638.892 0        51.000    20042485.344 0  78651001.525 0        54.400
E05  26317510.164 0 138299354.826 0        36.500                                                                                                    26317482.930 0 104622532.83410        28.800    26317511.879 0 112256046.314 0        42.800
E15  23998628.586 1 126113649.922 1        46.700    23998631.316 1  94175781.721 1        49.100    23998629.777 1  96632525.854 1        49.400    23998632.719 1  95404127.579 1        53.400    23998624.492 1 102364920.004 1        50.900
E13  26269498.219 0 138047341.04710        20.300    26269528.484 0 103087250.738 0        36.900    26269521.074 0 105776482.342 0        39.100    26269528.355 0 104431882.333 0        41.900    26269524.613 0 112051308.21310        25.600
E24  27796457.758 0 146071415.532 0        40.400                                                                                                    27796462.781 0 110502063.625 0        37.200    27796455.418 0 118564406.671 0        35.900
E08  23898035.328 1 125585256.765 1        30.100                                                                                                    23898040.691 1  95004295.01511        25.300    23898053.602 1 101935960.831 1        27.100
E03  24029282.766 1 126274798.052 1        51.900    24029285.117 1  94296085.162 1        49.800    24029282.645 1  96755845.295 1        51.000    24029285.789 1  95526050.022 1        54.200    24029276.625 1 102495854.732 1        51.400
> 2021 12 19  1 22 49.0000000  0 33       0.000000004000
C33  23111308.910 0 121450929.214 0        36.100    23111331.469 0  90693810.267 0        43.500    23111307.477 0 120346641.796 0        36.400                                                    23111311.051 0  97791497.208 0        41.700    23111329.316 0  93059684.589 0        41.300
C26  23169705.906 0 121757602.308 0        43.600    23169704.383 0  90923071.937 0        42.500    23169706.516 0 120650527.916 0        36.600                                                    23169698.965 0  98038561.351 0        41.700    23169702.586 0  93294762.000 0        39.900
C24  22904493.938 0 120363922.897 0        47.500    22904489.117 0  89882135.432 0        53.000    22904494.000 0 119269719.592 0        45.200                                                    22904482.797 0  96916420.663 0        50.200    22904487.016 0  92226865.141 0        50.500
C16                                                                                                  36186837.492 1 188434349.222 1        44.200    36186834.902 1 145709379.157 1        45.100    36186827.949 1 153118354.759 1        43.800
C14                                                                                                  22074011.453 1 114945145.143 1        44.900    22074003.988 1  88882874.646 1        47.900    22073998.773 1  93402368.766 1        50.000
C13                                                                                                  35818650.305 1 186517154.369 1        44.600    35818649.004 1 144226831.508 1        45.400    35818642.207 1 151560399.462 1        45.500
C09                                                                                                  37071464.453 1 193040877.331 1        40.100    37071458.188 1 149271409.627 1        44.100    37071452.031 1 156861475.618 1        43.700
C06                                                                                                  36112189.563 1 188045655.935 1        40.700    36112181.355 1 145408801.331 1        45.800    36112176.773 1 152802464.571 1        45.100
C05                                                                                                  39256414.297 1 204418456.381 1        33.900    39256407.117 1 158069288.677 1        37.300    39256403.781 1 166106686.073 1        33.400
C03                                                                                                  36687794.766 0 191042935.867 0        37.700    36687776.297 0 147726483.229 0        37.500    36687773.215 0 155237978.801 0        32.800
C02                                                                                                  37384832.234 0 194672635.825 0        35.500    37384823.289 0 150533188.602 0        40.300    37384821.641 0 158187413.637 0        35.800
C01                                                                                                  37733208.531 0 196486716.392 0        38.300    37733201.598 0 151935963.074 0        38.900    37733198.137 0 159661561.749 0        37.200
R17  21644297.195 0 115823048.639 0        29.400
R12  20723605.000 0 110701719.420 0        36.900    20723628.926 0 110701821.429 0        36.700    20723619.270 0  86101299.396 0        37.300    20723622.332 0  86101470.297 0        33.800
C38  36327327.484 1 190901341.165 1        47.000    36327323.914 1 142556204.023 1        51.300    36327327.859 1 189165871.202 1        45.000                                                    36327316.688 1 153712765.958 1        48.500    36327321.531 1 146275067.345 1        47.300
G18  20753201.813 0 109058774.318 0        40.600    20753206.574 0 109058770.318 0        43.200                                                    20753217.797 0  84980880.479 0        40.600    20753212.008 0  81439981.175 0        42.500
J07  36952222.672 0 194185221.425 0        41.800    36952220.926 0 194185249.417 0        44.400    36952216.012 0 194185282.273 0        47.000    36952228.305 0 151313203.082 0        52.200    36952228.488 0 145008479.798 0        53.700
J01  39513644.734 0 207645619.956 0        46.300    39513643.309 0 207645614.934 0        49.600    39513641.230 0 207645648.201 0        45.500    39513649.848 0 161801797.569 0        50.000    39513648.574 0 155060056.597 0        51.700    39513643.574 0 168543465.595 0        48.500
G15  22267958.594 0 117019106.822 0        46.700                                                    22267994.594 0  91183748.847 0        24.700    22267958.668 0  91183780.818 0        42.100
C42  23016683.023 0 120953457.483 0        47.800    23016690.410 0  90322390.784 0        51.900    23016683.797 0 119853874.533 0        45.100                                                    23016682.957 0  97391116.920 0        50.200    23016688.945 0  92678666.699 0        49.300
C58                                                                                                  33022093.117 0 171954697.724 0        37.800
I03  37331948.484 1 146498588.053 1        45.700
C60                                                                                                  37946330.188 0 197596500.283 0        43.000                                                    37946306.469 0 160563239.939 0        41.700    37946312.703 0 152794068.035 0        43.400
C59                                                                                                  37363982.031 0 194564059.538 0        38.900                                                    37363960.434 0 158099149.949 0        44.100    37363965.633 0 150449202.303 0        45.200
R02  20738521.906 0 110664745.717 0        47.500    20738521.105 0 110664752.694 0        47.800    20738525.504 0  86072590.592 0        49.300    20738525.398 0  86072584.579 0        48.300
G10  22951163.898 0 120609245.403 0        38.300                                                    22951172.465 0  93981213.621 0        29.600    22951172.082 0  93981421.646 0        38.800    22951165.227 0  90065339.571 0        40.500
G24  20042592.852 0 105324529.273 0        49.000                                                    20042600.406 0  82071103.096 0        55.400    20042600.516 0  82071098.100 0        51.000    20042597.531 0  78651441.596 0        54.300
E05  26317819.992 0 138300982.641 0        34.700                                                                                                    26317792.672 0 104623764.276 0        29.000    26317821.691 0 112257367.612 0        42.300
E15  23998812.063 1 126114614.477 1        47.000    23998814.852 1  94176502.004 1        49.400    23998813.305 1  96633264.929 1        49.100    23998816.281 1  95404857.260 1        53.300    23998808.074 1 102365702.922 1        50.700
E13  26269186.148 0 138045702.11710        20.000    26269216.953 0 103086026.879 0        37.200    26269209.328 0 105775226.539 0        39.100    26269216.523 0 104430642.512 0        41.900    26269212.363 0 112049977.93110        26.000
E24  27796520.070 0 146071743.720 0        39.900                                                                                                    27796525.449 0 110502311.892 0        37.500    27796517.816 0 118564673.073 0        35.800
E08  23897807.695 1 125584061.43311        30.400                                                                                                    23897813.145 1  95003390.81311        25.200    23897826.773 1 101934990.60511        26.400
E03  24029350.523 1 126275154.353 1        51.800    24029352.988 1  94296351.235 1        49.900    24029350.477 1  96756118.313 1        50.700    24029353.605 1  95526319.561 1        54.000    24029344.352 1 102496143.934 1        51.300
> 2021 12 19  1 22 50.0000000  0 33       0.000000004000
C33  23111066.785 0 121449660.375 0        36.600    23111089.781 0  90692862.739 0        43.000    23111066.266 0 120345384.462 0        36.700                                                    23111069.492 0  97790475.512 0        41.300    23111087.957 0  93058712.338 0        41.300
C26  23169896.281 0 121758595.973 0        44.100    23169893.375 0  90923813.959 0        42.600    23169895.883 0 120651512.525 0        37.000                                                    23169888.105 0  98039361.438 0        41.700    23169891.723 0  93295523.376 0        40.000
C24  22904157.129 0 120362153.024 0        47.200    22904152.332 0  89880813.772 0        53.300    22904157.414 0 119267965.809 0        45.400                                                    22904146.012 0  96914995.565 0        50.300    22904150.172 0  92225509.007 0        50.300
C16                                                                                                  36186875.617 1 188434548.586 1        44.300    36186873.027 1 145709533.313 1        45.100    36186866.207 1 153118516.752 1        43.900
C14                                                                                                  22073969.148 1 114944924.843 1        45.000    22073961.645 1  88882704.295 1        47.700    22073956.363 1  93402189.750 1        50.000
C13                                                                                                  35818689.641 1 186517359.064 1        44.700    35818688.531 1 144226989.791 1        45.100    35818681.512 1 151560565.794 1        45.200
C09                                                                                                  37071453.180 1 193040821.299 1        40.400    37071447.453 1 149271366.296 1        44.100    37071441.305 1 156861430.080 1        43.700
C06                                                                                                  36112193.906 1 188045679.513 1        40.800    36112186.063 1 145408819.562 1        46.000    36112181.242 1 152802483.732 1        45.400
C05                                                                                                  39256415.195 1 204418461.006 1        34.000    39256408.188 1 158069292.250 1        37.500    39256404.734 1 166106689.823 1        31.800
C03                                                                                                  36687802.141 0 191042974.719 0        37.500    36687783.797 0 147726513.272 0        37.600    36687780.520 0 155238010.369 0        32.900
C02                                                                                                  37384834.188 0 194672644.975 0        35.800    37384824.871 0 150533195.675 0        39.400    37384823.473 0 158187421.065 0        35.500
C01                                                                                                  37733211.844 0 196486734.943 0        38.400    37733205.141 0 151935977.417 0        39.000    37733201.707 0 159661576.824 0        37.600
R17  21644960.805 0               0        26.400
R12  20723632.672 0 110701870.675 0        36.900    20723656.934 0 110701972.676 0        36.800    20723643.980 0  86101417.011 0        38.300    20723650.480 0  86101587.934 0        32.900
C38  36327478.840 1 190902136.327 1        46.800    36327475.234 1 142556797.813 1        51.500    36327479.000 1 189166659.132 1        44.900                                                    36327467.996 1 153713406.221 1        48.700    36327472.863 1 146275676.626 1        47.500
G18  20753518.359 0 109060441.395 0        40.700    20753523.715 0 109060437.408 0        43.300                                                    20753534.277 0  84982179.510 0        41.100    20753528.559 0  81441226.070 0        43.500
J07  36952222.328 0 194185218.886 0        41.100    36952220.418 0 194185246.910 0        44.600    36952215.566 0 194185279.734 0        46.800    36952227.844 0 151313201.131 0        52.000    36952228.016 0 145008477.929 0        53.700
J01  39513558.922 0 207645167.895 0        46.000    39513557.363 0 207645162.887 0        49.600    39513555.148 0 207645196.140 0        45.600    39513563.848 0 161801445.314 0        50.200    39513562.586 0 155059719.007 0        52.100    39513557.516 0 168543098.661 0        48.400
G15  22268401.758 0 117021440.464 0        46.700                                                    22268437.758 0  91185567.295 0        24.700    22268402.191 0  91185599.249 0        42.200
C42  23016819.074 0 120954172.629 0        47.800    23016826.480 0  90322924.821 0        52.000    23016819.563 0 119854583.186 0        45.000                                                    23016818.867 0  97391692.762 0        50.300    23016825.098 0  92679214.678 0        49.600
C58                                                                                                  33022467.625 0 171956648.113 0        37.900
I03  37331945.352 1 146498573.719 1        45.900
C60                                                                                                  37946339.422 0 197596549.437 0        43.000                                                    37946315.832 0 160563279.881 0        42.000    37946322.113 0 152794106.044 0        43.300
C59                                                                                                  37363979.688 0 194564047.049 0        38.900                                                    37363958.074 0 158099139.803 0        44.100    37363963.234 0 150449192.646 0        45.500
R02  20738651.883 0 110665438.239 0        47.300    20738650.758 0 110665445.223 0        47.800    20738655.641 0  86073129.211 0        49.500    20738655.254 0  86073123.206 0        48.700
G10  22950646.359 0 120606522.507 0        38.400                                                    22950654.410 0  93979091.893 0        30.200    22950653.766 0  93979299.894 0        38.700    22950646.773 0  90063306.231 0        40.500
G24  20042705.203 0 105325119.278 0        49.100                                                    20042712.715 0  82071562.835 0        55.400    20042712.969 0  82071557.840 0        51.200    20042709.801 0  78651882.180 0        54.300
E05  26318130.180 0 138302610.187 0        33.500                                                                                                    26318102.457 0 104624995.54210        28.600    26318131.594 0 112258688.693 0        42.100
E15  23998995.438 1 126115579.483 1        47.000    23998998.469 1  94177222.629 1        49.300    23998996.855 1  96634004.355 1        49.100    23998999.926 1  95405587.280 1        53.300    23998991.664 1 102366486.206 1        50.900
E13  26268874.789 0 138044063.693 0        20.600    26268905.309 0 103084803.258 0        36.900    26268897.418 0 105773971.026 0        39.200    26268904.746 0 104429402.946 0        41.800    26268900.188 0 112048647.922 0        26.700
E24  27796582.305 0 146072072.352 0        39.900                                                                                                    27796588.066 0 110502560.502 0        37.500    27796580.043 0 118564939.834 0        35.500
E08  23897580.688 1 125582866.154 1        30.400                                                                                                                                                    23897600.105 1 101934020.422 1        26.700
E03  24029418.383 1 126275510.735 1        51.800    24029420.879 1  94296617.371 1        50.100    24029418.344 1  96756391.383 1        50.800    24029421.418 1  95526589.163 1        54.300    24029412.020 1 102496433.208 1        50.800
> 2021 12 19  1 22 51.0000000  0 33       0.000000002000
C33  23110825.477 0 121448391.578 0        35.900    23110848.238 0  90691915.269 0        42.800    23110825.242 0 120344127.208 0        36.700                                                    23110827.969 0  97789453.888 0        41.500    23110846.672 0  93057740.150 0        41.300
C26  23170086.238 0 121759590.160 0        44.100    23170082.621 0  90924556.362 0        42.600    23170086.031 0 120652497.668 0        38.200                                                    23170077.313 0  98040161.957 0        41.600    23170080.984 0  93296285.153 0        40.200
C24  22903820.441 1 120360383.592 1        47.300    22903815.609 1  89879492.442 1        53.600    22903820.617 1 119266212.460 1        45.300                                                    22903809.348 1  96913570.824 1        50.200    22903813.453 1  92224153.207 1        50.200
C16                                                                                                  36186914.148 1 188434747.975 1        44.300    36186911.371 1 145709687.495 1        45.100    36186904.496 1 153118678.778 1        44.100
C14                                                                                                  22073926.617 1 114944704.665 1        45.100    22073919.578 1  88882534.035 1        47.800    22073914.020 1  93402010.832 1        49.900
C13                                                                                                  35818728.828 1 186517563.911 1        44.600    35818727.738 1 144227148.191 1        45.200    35818720.836 1 151560732.246 1        45.300
C09                                                                                                  37071442.656 1 193040765.349 1        40.200    37071436.758 1 149271323.022 1        44.300    37071430.531 1 156861384.611 1        43.700
C06                                                                                                  36112198.594 1 188045703.149 1        40.600    36112190.410 1 145408837.844 1        46.400    36112185.785 1 152802502.938 1        44.900
C05                                                                                                  39256416.016 1 204418465.668 1        33.800    39256409.164 1 158069295.858 1        38.000    39256405.523 1 166106693.615 1        33.300
C03                                                                                                  36687809.453 1 191043013.598 1        37.400    36687791.254 1 147726543.348 1        37.600    36687787.852 1 155238041.971 1        31.200
C02                                                                                                  37384836.000 1 194672654.097 1        35.800    37384826.539 1 150533202.733 1        40.300    37384825.188 1 158187428.475 1        35.200
C01                                                                                                  37733215.578 0 196486753.443 0        38.300    37733208.750 0 151935991.728 0        39.100    37733205.301 0 159661591.861 0        37.700
R12  20723660.664 0 110702022.828 0        38.600    20723685.129 0 110702124.778 0        37.100    20723670.027 0  86101535.342 0        38.900    20723678.742 0  86101706.263 0        32.900
R03  21260954.070 0 113811379.46310        38.100    21260954.676 0 113811418.44610        37.900    21260952.559 0  88520072.38010        37.600    21260953.973 0               0        35.600
C38  36327630.352 1 190902931.642 1        46.300    36327626.520 1 142557391.724 1        51.300    36327630.203 1 189167447.221 1        44.900                                                    36327619.371 1 153714046.607 1        48.500    36327624.203 1 146276286.024 1        47.400
G18  20753835.844 0 109062109.057 0        40.800    20753841.230 0 109062105.050 0        43.500                                                    20753850.953 0  84983478.980 0        41.700    20753845.215 0  81442471.398 0        43.500
J07  36952221.828 1 194185216.384 1        41.200    36952219.641 1 194185244.391 1        44.300    36952215.004 1 194185277.231 1        47.000    36952227.418 1 151313199.170 1        51.700    36952227.566 1 145008476.045 1        53.500
J01  39513472.750 1 207644715.735 1        46.400    39513471.344 1 207644710.720 1        49.600    39513469.098 1 207644743.980 1        45.500    39513478.035 1 161801092.978 1        50.200    39513476.555 1 155059381.361 1        51.900    39513471.461 1 168542731.646 1        48.600
G15  22268845.469 0 117023774.179 0        46.900                                                    22268880.957 0  91187385.788 0        24.400    22268846.281 0  91187417.742 0        42.200
C42  23016955.090 1 120954887.905 1        47.600    23016962.531 1  90323458.949 1        52.000    23016955.766 1 119855291.938 1        45.000                                                    23016955.035 1  97392268.684 1        50.200    23016961.270 1  92679762.732 1        49.600
C58                                                                                                  33022842.352 0 171958598.781 0        37.900
I03  37331941.742 1 146498559.391 1        46.400
C60                                                                                                  37946348.805 1 197596598.585 1        43.000                                                    37946325.293 1 160563319.818 1        42.300    37946331.594 1 152794144.046 1        43.800
C59                                                                                                  37363977.289 1 194564034.558 1        38.700                                                    37363955.672 1 158099129.653 1        44.100    37363960.844 1 150449182.986 1        45.600
R02  20738781.664 1 110666130.840 1        46.600    20738780.598 1 110666137.817 1        47.600    20738785.883 1  86073667.904 1        49.600    20738785.086 1  86073661.898 1        49.200
G10  22950127.922 0 120603799.619 0        38.400                                                    22950136.406 0  93976970.159 0        30.000    22950135.398 0  93977178.162 0        38.600    22950128.980 0  90061272.909 0        40.400
G24  20042817.484 1 105325709.934 1        49.000                                                    20042825.199 1  82072023.088 1        55.500    20042825.328 1  82072018.100 1        51.500    20042822.184 1  78652323.256 1        54.300
E05  26318440.313 0 138304237.94210        31.400                                                                                                    26318412.145 0 104626226.913 0        27.900    26318441.098 0 112260009.96310        41.100
E15  23999179.047 1 126116544.948 1        46.800    23999182.211 1  94177943.589 1        49.600    23999180.508 1  96634744.127 1        49.200    23999183.664 1  95406317.649 1        53.200    23999175.293 1 102367269.863 1        50.900
E13  26268563.469 0 138042425.662 0        21.900    26268593.652 0 103083579.965 0        37.000    26268585.773 0 105772715.827 0        39.000    26268593.074 0 104428163.705 0        41.700    26268587.867 0 112047318.248 0        26.800
E24  27796644.953 0 146072401.435 0        39.900                                                                                                    27796650.855 0 110502809.424 0        37.700    27796642.383 0 118565206.951 0        35.500
E08  23897353.148 0 125581670.979 0        29.900                                                                                                                                                    23897373.559 0 101933050.302 0        26.400
E03  24029486.289 1 126275867.175 1        51.800    24029488.707 1  94296883.537 1        50.500    24029486.148 1  96756664.500 1        50.800    24029489.258 1  95526858.810 1        54.500    24029479.797 1 102496722.521 1        51.200
> 2021 12 19  1 22 52.0000000  0 33       0.000000002000
C33  23110584.035 0 121447122.847 0        36.400    23110606.754 0  90690967.822 0        43.000    23110584.203 0 120342869.999 0        36.700                                                    23110586.508 0  97788432.305 0        41.000    23110605.324 0  93056767.995 0        41.200
C26  23170277.570 0 121760584.852 0        44.000    23170271.617 0  90925299.169 0        43.000    23170275.922 0 120653483.312 0        39.200                                                    23170266.699 0  98040962.878 0        42.000    23170270.313 0  93297047.324 0        40.800
C24  22903483.637 1 120358614.571 1        47.500    22903478.969 1  89878171.422 1        53.200    22903484.016 1 119264459.531 1        45.500                                                    22903472.645 1  96912146.428 1        49.900    22903476.797 1  92222797.730 1        50.200
C16                                                                                                  36186952.422 1 188434947.411 1        44.500    36186949.746 1 145709841.712 1        44.900    36186942.742 1 153118840.837 1        43.900
C14                                                                                                  22073884.531 1 114944484.608 1        44.900    22073877.367 1  88882363.875 1        48.100    22073871.805 1  93401832.020 1        49.700
C13                                                                                                  35818768.336 1 186517768.916 1        44.700    35818767.258 1 144227306.708 1        45.100    35818760.219 1 151560898.827 1        45.300
C09                                                                                                  37071432.023 1 193040709.454 1        40.000    37071426.172 1 149271279.806 1        44.600    37071419.770 1 156861339.193 1        43.700
C06                                                                                                  36112203.219 1 188045726.855 1        40.800    36112194.863 1 145408856.173 1        46.000    36112190.313 1 152802522.203 1        45.100
C05                                                                                                  39256416.977 1 204418470.291 1        33.700    39256409.652 1 158069299.429 1        37.700    39256406.469 1 166106697.377 1        33.700
C03                                                                                                  36687817.484 1 191043052.456 1        37.300    36687798.645 1 147726573.387 1        37.600    36687795.477 1 155238073.544 1        32.000
C02                                                                                                  37384837.586 1 194672663.219 1        35.200    37384828.465 1 150533209.790 1        39.800    37384826.898 1 158187435.885 1        35.600
C01                                                                                                  37733218.930 0 196486771.972 0        38.400    37733212.402 0 151936006.055 0        39.100    37733208.770 0 159661606.913 0        38.000
R12  20723687.992 0 110702175.846 0        38.300    20723713.531 0 110702277.802 0        36.900    20723694.770 0  86101654.329 0        39.700    20723707.203 0  86101825.259 0        33.300
R03  21260705.516 0 113810056.311 0        37.800    21260706.875 0 113810095.286 0        37.300    21260706.676 0  88519043.277 0        38.600    21260706.578 0               0        36.400
C38  36327781.813 1 190903727.106 1        46.300    36327777.930 1 142557985.739 1        51.400    36327781.828 1 189168235.458 1        44.700                                                    36327770.676 1 153714687.111 1        48.000    36327775.621 1 146276895.538 1        47.600
G18  20754152.867 0 109063777.278 0        40.500    20754158.336 0 109063773.278 0        43.400    20754168.547 0  84984848.88710        25.700    20754167.551 0  84984778.930 0        41.700    20754162.027 0  81443717.166 0        43.900
J07  36952221.344 1 194185213.868 1        41.300    36952219.566 1 194185241.867 1        44.500    36952214.328 1 194185274.716 1        47.200    36952226.715 1 151313197.198 1        51.900    36952227.102 1 145008474.154 1        53.800
J01  39513386.703 1 207644263.462 1        46.300    39513385.121 1 207644258.455 1        49.600    39513382.969 1 207644291.715 1        45.600    39513391.785 1 161800740.574 1        50.300    39513390.543 1 155059043.628 1        51.900    39513385.320 1 168542364.545 1        48.600
G15  22269290.023 0 117026107.967 0        46.700                                                    22269324.336 0  91189204.325 0        23.800    22269290.516 0  91189236.260 0        41.800
C42  23017091.379 1 120955603.304 1        47.700    23017098.680 1  90323993.169 1        52.000    23017091.992 1 119856000.826 1        45.000                                                    23017091.223 1  97392844.715 1        50.000    23017097.473 1  92680310.891 1        49.800
C58                                                                                                  33023216.984 0 171960549.697 0        38.300
I03  37331938.641 1 146498545.045 1        46.400
C60                                                                                                  37946358.281 1 197596647.718 1        42.900                                                    37946334.715 1 160563359.743 1        42.400    37946341.055 1 152794182.039 1        43.400
C59                                                                                                  37363974.891 1 194564022.033 1        38.800                                                    37363953.289 1 158099119.473 1        43.900    37363958.469 1 150449173.302 1        45.400
R02  20738911.469 1 110666823.545 1        46.500    20738910.414 1 110666830.522 1        47.200    20738914.914 1  86074206.666 1        49.800    20738914.727 1  86074200.668 1        49.200
G10  22949610.258 0 120601076.761 0        38.500                                                    22949618.332 0  93974848.475 0        29.800    22949616.895 0  93975056.479 0        38.600    22949610.891 0  90059239.614 0        40.500
G24  20042929.969 1 105326301.257 1        49.000                                                    20042937.594 1  82072483.865 1        55.600    20042937.746 1  82072478.870 1        51.700    20042934.703 1  78652764.826 1        54.000
E05  26318751.602 0 138305865.533 0        29.700                                                                                                    26318721.801 0 104627458.27910        28.400    26318750.672 0 112261331.105 0        40.500
E15  23999362.797 1 126117510.871 1        46.900    23999365.992 1  94178664.893 1        49.600    23999364.340 1  96635484.239 1        49.100    23999367.465 1  95407048.366 1        52.900    23999358.977 1 102368053.895 1        51.000
E13  26268252.445 0 138040787.921 0        26.300    26268281.844 0 103082356.940 0        37.400    26268274.512 0 105771460.924 0        38.600    26268281.398 0 104426924.727 0        41.800    26268275.570 0 112045988.890 0        27.500
E24  27796707.805 0 146072730.923 0        39.600                                                                                                    27796713.652 0 110503058.669 0        37.400    27796704.656 0 118565474.401 0        35.500
E08  23897126.242 0 125580475.856 0        30.900                                                                                                                                                    23897146.777 0 101932080.254 0        26.100
E03  24029554.031 1 126276223.662 1        51.700    24029556.492 1  94297149.740 1        50.900    24029554.098 1  96756937.643 1        51.000    24029557.090 1  95527128.483 1        54.700    24029547.438 1 102497011.883 1        50.900
> 2021 12 19  1 22 53.0000000  0 33       0.000000002000
C33  23110342.391 0 121445854.251 0        37.100    23110365.383 0  90690020.495 0        43.100    23110343.047 0 120341612.901 0        36.700                                                    23110345.074 0  97787410.813 0        40.900    23110364.000 0  93055795.932 0        41.300
C26  23170469.480 0 121761580.151 0        44.100    23170461.043 0  90926042.393 0        42.700    23170465.766 0 120654469.562 0        40.000                                                    23170456.258 0  98041764.281 0        41.400    23170459.832 0  93297809.948 0        40.100
C24  22903147.121 1 120356846.068 1        47.600    22903142.406 1  89876850.787 1        53.000    22903147.633 1 119262707.098 1        45.600                                                    22903136.117 1  96910722.430 1        49.900    22903140.227 1  92221442.638 1        50.100
C16                                                                                                  36186990.492 1 188435146.983 1        44.400    36186988.086 1 145709996.034 1        44.900    36186981.059 1 153119003.003 1        44.100
C14                                                                                                  22073842.352 1 114944264.748 1        44.900    22073835.078 1  88882193.859 1        48.600    22073829.465 1  93401653.373 1        49.900
C13                                                                                                  35818807.570 1 186517974.132 1        44.600    35818806.578 1 144227465.398 1        45.300    35818799.621 1 151561065.582 1        45.200
C09                                                                                                  37071421.289 1 193040653.717 1        40.300    37071415.164 1 149271236.704 1        44.500    37071409.133 1 156861293.903 1        43.900
C06                                                                                                  36112207.625 1 188045750.696 1        40.800    36112199.613 1 145408874.607 1        46.600    36112194.855 1 152802541.570 1        44.800
C05                                                                                                  39256417.695 1 204418474.965 1        33.700    39256410.477 1 158069303.036 1        38.000    39256407.320 1               1        31.000
C03                                                                                                  36687824.391 1 191043091.371 1        37.600    36687806.258 1 147726603.478 1        37.100    36687802.848 1 155238105.163 1        32.200
C02                                                                                                  37384839.680 1 194672672.385 1        35.600    37384830.160 1 150533216.870 1        40.100    37384828.762 1 158187443.334 1        35.500
C01                                                                                                  37733222.633 0 196486790.543 0        38.400    37733216.066 0 151936020.409 0        39.100    37733212.395 0 159661621.996 0        37.600
R12  20723714.375 0 110702329.777 0        39.500    20723742.145 0 110702431.779 0        36.800    20723718.352 0  86101774.084 0        40.500    20723735.996 0  86101944.984 0        34.100
R03  21260457.703 0 113808733.296 0        37.000    21260458.777 0 113808772.270 0        36.800    21260458.758 0  88518014.277 0        38.900    21260459.094 0  88518035.25010        36.900
C38  36327933.191 1 190904522.813 1        46.300    36327929.262 1 142558579.932 1        51.600    36327933.000 1 189169023.918 1        44.700                                                    36327922.070 1 153715327.805 1        48.000    36327927.043 1 146277505.228 1        47.300
G18  20754470.438 0 109065446.190 0        39.800    20754475.660 0 109065442.189 0        43.400    20754485.820 0  84986149.358 0        23.600    20754485.008 0  84986079.356 0        41.900    20754479.648 0  81444963.427 0        44.000
J07  36952220.859 1 194185211.401 1        40.800    36952219.043 1 194185239.397 1        44.500    36952214.160 1 194185272.254 1        46.900    36952226.336 1 151313195.281 1        52.100    36952226.578 1 145008472.316 1        54.100
J01  39513300.625 1 207643811.179 1        45.700    39513299.211 1 207643806.179 1        49.600    39513297.184 1 207643839.432 1        45.800    39513305.742 1 161800388.141 1        50.300    39513304.398 1 155058705.875 1        52.100    39513299.172 1 168541997.429 1        48.500
G15  22269732.828 0 117028441.893 0        46.500                                                    22269767.609 0  91191022.954 0        23.200    22269734.629 0  91191054.918 0        42.100
C42  23017227.504 1 120956318.908 1        47.300    23017235.004 1  90324527.550 1        52.100    23017228.156 1 119856709.921 1        45.200                                                    23017227.426 1  97393420.916 1        50.000    23017233.715 1  92680859.212 1        49.900
C58                                                                                                  33023591.930 0 171962500.973 0        37.900
I03  37331934.938 1 146498530.764 1        46.100
C60                                                                                                  37946367.781 1 197596696.914 1        42.900                                                    37946344.148 1 160563399.720 1        41.900    37946350.457 1 152794220.083 1        43.700
C59                                                                                                  37363972.172 1 194564009.602 1        38.700                                                    37363950.918 1 158099109.371 1        43.900    37363956.059 1 150449163.685 1        45.600
R02  20739041.320 1 110667516.419 1        46.100    20739040.320 1 110667523.389 1        47.300    20739045.031 1  86074745.562 1        50.200    20739044.676 1  86074739.564 1        49.500
G10  22949092.578 0 120598353.996 0        38.100                                                    22949100.207 0  93972726.852 0        29.200    22949098.777 0  93972934.837 0        38.200    22949092.691 0  90057206.375 0        40.200
G24  20043042.609 1 105326893.337 1        49.100                                                    20043050.258 1  82072945.224 1        56.000    20043050.426 1  82072940.222 1        51.700    20043047.449 1  78653206.961 1        53.900
E05  26319065.078 0 138307493.131 0        29.700                                                                                                    26319031.547 0 104628689.59110        28.300    26319060.137 0 112262652.276 0        39.600
E15  23999546.648 1 126118477.316 1        47.000    23999549.852 1  94179386.585 1        49.500    23999548.164 1  96636224.769 1        49.500    23999551.395 1  95407779.468 1        53.100    23999542.984 1 102368838.347 1        50.600
E13  26267941.836 0 138039150.658 0        29.400    26267970.305 0 103081134.290 0        37.300    26267963.227 0 105770206.351 0        37.600    26267969.824 0 104425686.137 0        41.400    26267963.211 0 112044659.922 0        28.000
E24  27796771.055 0 146073060.931 0        38.700                                                                                                    27796776.543 0 110503308.322 0        37.500    27796767.063 0 118565742.270 0        35.500
E08  23896899.078 0 125579280.88610        30.400                                                                                                                                                    23896920.070 0 101931110.31910        26.200
E03  24029621.969 1 126276580.285 1        51.600    24029624.324 1  94297416.048 1        51.200    24029621.910 1  96757210.899 1        51.100    24029624.973 1  95527398.268 1        54.900    24029615.242 1 102497301.345 1        51.100
> 2021 12 19  1 22 54.0000000  0 33       0.000000002000
C33  23110101.070 0 121444585.590 0        36.900    23110123.930 0  90689073.100 0        43.200    23110101.602 0 120340355.781 0        36.900                                                    23110103.676 0  97786389.297 0        40.700    23110122.637 0  93054823.843 0        41.400
C26  23170662.164 0 121762575.855 0        43.900    23170650.559 0  90926785.935 0        42.900    23170656.070 0 120655456.216 0        40.800                                                    23170645.902 0  98042566.013 0        41.900    23170649.379 0  93298572.882 0        40.400
C24  22902810.723 1 120355077.894 1        47.600    22902805.930 1  89875530.400 1        53.100    22902811.102 1 119260955.002 1        45.700                                                    22902799.633 1  96909298.705 1        49.800    22902803.750 1  92220087.801 1        50.200
C16                                                                                                  36187029.023 1 188435346.498 1        44.600    36187026.316 1 145710150.300 1        45.000    36187019.410 1 153119165.120 1        44.300
C14                                                                                                  22073800.188 1 114944044.885 1        44.900    22073792.805 1  88882023.843 1        48.700    22073787.133 1  93401474.707 1        50.000
C13                                                                                                  35818847.063 1 186518179.422 1        44.700    35818845.910 1 144227624.140 1        45.000    35818839.082 1 151561232.394 1        44.800
C09                                                                                                  37071410.617 1 193040597.951 1        40.500    37071404.406 1 149271193.579 1        44.700    37071398.469 1 156861248.587 1        43.900
C06                                                                                                  36112212.289 1 188045774.479 1        40.700    36112204.238 1 145408892.994 1        46.500    36112199.438 1 152802560.894 1        44.700
C05                                                                                                  39256418.813 1 204418479.531 1        33.600    39256411.438 1 158069306.571 1        37.600    39256408.195 1 166106704.877 1        32.000
C03                                                                                                  36687832.477 1 191043130.198 1        37.400    36687813.664 1 147726633.499 1        37.200    36687810.676 1 155238136.713 1        31.900
C02                                                                                                  37384840.938 1 194672681.461 1        35.400    37384832.059 1 150533223.885 1        39.800    37384830.594 1 158187450.703 1        36.000
C01                                                                                                  37733226.289 0 196486809.017 0        38.100    37733219.563 0 151936034.691 0        38.700    37733215.922 0 159661637.014 0        37.900
R12  20723746.344 0 110702484.554 0        40.600    20723770.441 0 110702586.526 0        37.300    20723741.309 0  86101894.437 0        40.900    20723764.750 0  86102065.374 0        33.000
R03  21260209.672 0 113807410.144 0        35.400    21260210.422 0 113807449.164 0        36.000    21260211.668 0  88516985.195 0        38.800    21260211.324 0  88517006.161 0        36.300
C38  36328084.727 1 190905318.554 1        46.100    36328080.727 1 142559174.151 1        51.400    36328084.664 1 189169812.439 1        44.600                                                    36328073.586 1 153715968.538 1        48.000    36328078.484 1 146278114.959 1        47.000
G18  20754788.914 0 109067115.544 0        39.800    20754793.527 0 109067111.557 0        43.300    20754803.137 0  84987450.150 0        24.900    20754801.438 0  84987380.185 0        42.100    20754796.742 0  81446210.031 0        44.400
J07  36952219.969 1 194185208.839 1        40.900    36952218.242 1 194185236.833 1        44.400    36952213.566 1 194185269.689 1        46.900    36952225.797 1 151313193.279 1        51.900    36952226.043 1 145008470.396 1        53.800
J01  39513214.547 1 207643358.676 1        45.600    39513212.977 1 207643353.684 1        49.600    39513210.977 1 207643386.922 1        45.800    39513219.551 1 161800035.549 1        50.200    39513218.324 1 155058367.980 1        52.300    39513213.117 1 168541630.134 1        48.400
G15  22270176.164 0 117030775.779 0        46.100                                                    22270210.766 0  91192841.584 0        25.200    22270178.852 0  91192873.526 0        42.300
C42  23017363.711 1 120957034.544 1        47.300    23017371.215 1  90325061.945 1        52.000    23017364.406 1 119857419.053 1        45.100                                                    23017363.578 1  97393997.139 1        50.200    23017369.949 1  92681407.558 1        49.300
C58                                                                                                  33023966.773 0 171964452.403 0        38.200
I03  37331930.977 1 146498516.395 1        46.000
C60                                                                                                  37946377.422 1 197596746.003 1        43.100                                                    37946353.613 1 160563439.607 1        41.900    37946359.867 1 152794258.042 1        43.700
C59                                                                                                  37363969.961 1 194563997.048 1        39.000                                                    37363948.484 1 158099099.172 1        44.000    37363953.602 1 150449153.976 1        45.800
R02  20739171.586 1 110668209.296 1        46.000    20739170.133 1 110668216.266 1        47.300    20739174.500 1  86075284.458 1        50.300    20739174.539 1  86075278.468 1        49.200
G10  22948574.156 0 120595631.151 0        38.600                                                    22948582.344 0  93970605.162 0        29.100    22948580.438 0  93970813.160 0        38.200    22948574.504 0  90055173.089 0        39.900
G24  20043155.336 1 105327485.959 1        49.200                                                    20043163.000 1  82073407.007 1        55.600    20043163.191 1  82073402.012 1        51.000    20043160.211 1  78653649.507 1        53.900
E05  26319378.695 0 138309120.583 0        31.400                                                                                                    26319341.277 0 104629920.816 0        27.300    26319369.785 0 112263973.340 0        38.700
E15  23999730.672 1 126119444.108 1        47.200    23999733.949 1  94180108.538 1        49.400    23999732.039 1  96636965.553 1        49.400    23999735.387 1  95408510.836 1        53.200    23999726.941 1 102369623.079 1        50.500
E13  26267631.320 0 138037513.654 0        31.000    26267658.730 0 103079911.837 0        37.200    26267652.531 0 105768952.014 0        37.000    26267658.328 0 104424447.733 0        41.300    26267650.746 0 112043331.168 0        29.000
E24  27796834.289 0 146073391.284 0        37.500                                                                                                    27796839.559 0 110503558.214 0        36.700    27796829.535 0 118566010.430 0        35.500
E08  23896671.953 0 125578085.889 0        30.400                                                                                                                                                    23896693.082 0 101930140.373 0        25.000
E03  24029689.695 1 126276936.844 1        51.500    24029692.238 1  94297682.313 1        50.900    24029689.855 1  96757484.110 1        51.100    24029692.824 1  95527668.003 1        54.900    24029682.965 1 102497590.758 1        50.900
> 2021 12 19  1 22 55.0000000  0 33       0.000000002000
C33  23109859.313 0 121443317.149 0        37.200    23109882.402 0  90688125.919 0        42.800    23109860.750 0 120339098.907 0        36.900                                                    23109862.297 0  97785367.992 0        40.400    23109881.270 0  93053851.955 0        41.300
C26  23170854.723 0 121763572.275 0        43.200    23170840.320 0  90927530.020 0        42.700    23170846.648 0 120656443.573 0        40.900                                                    23170835.586 0  98043368.317 0        41.800    23170839.129 0  93299336.365 0        40.300
C24  22902474.270 1 120353310.351 1        47.600    22902469.586 1  89874210.489 1        53.400    22902474.758 1 119259203.545 1        45.600                                                    22902463.355 1  96907875.506 1        49.600    22902467.359 1  92218733.469 1        50.200
C16                                                                                                  36187067.398 1 188435546.252 1        44.500    36187064.699 1 145710304.756 1        44.800    36187057.797 1 153119327.430 1        43.800
C14                                                                                                  22073757.969 1 114943825.331 1        44.800    22073750.840 1  88881854.070 1        48.500    22073744.945 1  93401296.308 1        49.500
C13                                                                                                  35818886.516 1 186518385.096 1        44.500    35818885.469 1 144227783.182 1        44.900    35818878.555 1 151561399.520 1        45.000
C09                                                                                                  37071399.773 1 193040542.449 1        40.200    37071393.840 1 149271150.663 1        43.800    37071387.684 1 156861203.481 1        43.300
C06                                                                                                  36112216.945 1 188045798.548 1        40.800    36112208.898 1 145408911.611 1        46.300    36112204.039 1 152802580.455 1        45.000
C05                                                                                                  39256419.734 1 204418484.334 1        33.900    39256412.418 1 158069310.285 1        37.600    39256409.238 1 166106708.784 1        31.900
C03                                                                                                  36687840.047 1 191043169.186 1        37.500    36687821.332 1 147726663.646 1        37.100    36687818.395 1 155238168.394 1        31.500
C02                                                                                                  37384842.859 1 194672690.756 1        35.700    37384833.832 1 150533231.076 1        39.600    37384832.363 1 158187458.269 1        35.300
C01                                                                                                  37733229.766 0 196486827.675 0        38.100    37733222.969 0 151936049.118 0        39.200    37733219.449 0 159661652.171 0        37.300
R12  20723774.211 0 110702640.371 0        40.400    20723798.547 0 110702742.343 0        37.600    20723762.699 0  86102015.608 0        41.400    20723793.410 0  86102186.561 0        32.900
R03  21259960.234 0 113806087.278 0        35.500    21259961.793 0 113806126.292 0        35.400    21259966.043 0  88515956.302 0        38.300    21259964.000 0  88515977.298 0        35.900
C38  36328236.082 1 190906114.642 1        46.300    36328232.133 1 142559768.643 1        51.400    36328236.063 1 189170601.299 1        44.700                                                    36328224.992 1 153716609.555 1        47.500    36328229.988 1 146278724.951 1        47.000
G18  20755105.813 0 109068785.715 0        40.100    20755111.559 0 109068781.736 0        43.300    20755120.570 0  84988751.590 0        22.900    20755118.789 0  84988681.611 0        42.000    20755114.211 0  81447457.245 0        44.500
J07  36952219.297 1 194185206.449 1        41.100    36952218.074 1 194185234.448 1        44.400    36952213.254 1 194185267.297 1        46.900    36952225.211 1 151313191.426 1        51.000    36952225.594 1 145008468.613 1        53.400
J01  39513128.516 1 207642906.290 1        45.700    39513126.949 1 207642901.283 1        49.600    39513124.621 1 207642934.536 1        46.000    39513133.691 1 161799683.028 1        49.100    39513132.199 1 155058030.151 1        52.100    39513127.191 1 168541262.937 1        47.800
G15  22270621.141 0 117033109.931 0        45.900                                                    22270654.078 0  91194660.420 0        25.800    22270623.418 0  91194692.340 0        42.100
C42  23017499.957 1 120957750.505 1        47.700    23017507.500 1  90325596.591 1        52.100    23017500.750 1 119858128.495 1        45.000                                                    23017499.773 1  97394573.626 1        49.800    23017506.227 1  92681956.147 1        49.500
C58                                                                                                  33024341.430 0 171966404.341 0        38.100
I03  37331927.094 1 146498502.177 1        46.300
C60                                                                                                  37946386.758 1 197596795.285 1        43.100                                                    37946363.105 1 160563479.649 1        41.500    37946369.340 1 152794296.146 1        43.600
C59                                                                                                  37363967.688 1 194563984.678 1        38.900                                                    37363946.145 1 158099089.124 1        43.900    37363951.258 1 150449144.416 1        45.400
R02  20739301.492 1 110668902.469 1        45.800    20739300.043 1 110668909.431 1        47.600    20739305.223 1  86075823.580 1        49.500    20739304.402 1  86075817.590 1        48.200
G10  22948056.172 0 120592908.531 0        38.500                                                    22948064.535 0  93968483.638 0        29.700    22948062.238 0  93968691.635 0        37.900    22948056.512 0  90053139.963 0        39.600
G24  20043268.531 1 105328079.441 1        49.500                                                    20043276.012 1  82073869.455 1        56.100    20043276.016 1  82073864.467 1        50.200    20043273.117 1  78654092.693 1        54.000
E05  26319690.688 0 138310748.321 0        32.900                                                                                                    26319651.023 0 104631152.25210        27.800    26319679.609 0 112265294.606 0        37.200
E15  23999914.641 1 126120411.548 1        46.500    23999918.074 1  94180830.976 1        49.100    23999915.996 1  96637706.833 1        49.500    23999919.473 1  95409242.696 1        53.000    23999910.801 1 102370408.346 1        50.000
E13  26267320.938 0 138035877.218 0        31.200    26267347.313 0 103078689.817 0        37.500    26267341.695 0 105767698.143 0        36.600    26267346.945 0 104423209.776 0        41.200    26267338.426 0 112042002.886 0        30.000
E24  27796897.586 0 146073722.259 0        36.700                                                                                                    27796902.664 0 110503808.569 0        36.100    27796892.484 0 118566279.080 0        35.200
E08  23896445.109 0 125576891.213 0        30.600                                                                                                                                                    23896466.137 0 101929170.686 0        24.300
E03  24029757.711 1 126277293.668 1        51.300    24029760.301 1  94297948.775 1        50.900    24029757.703 1  96757757.530 1        51.600    24029760.727 1  95527937.942 1        54.600    24029750.805 1 102497880.389 1        50.900
> 2021 12 19  1 22 56.0000000  0 33       0.000000002000
C33  23109617.738 0 121442048.762 0        37.900    23109641.047 0  90687178.738 0        42.900    23109619.289 0 120337842.013 0        36.400                                                    23109620.859 0  97784346.667 0        40.300    23109639.945 0  93052880.043 0        41.500
C26  23171046.324 0 121764569.128 0        42.500    23171030.082 0  90928274.391 0        42.600    23171037.477 0 120657431.377 0        40.900                                                    23171025.328 0  98044170.979 0        41.600    23171028.926 0  93300100.188 0        40.700
C24  22902137.828 1 120351543.179 1        47.500    22902133.281 1  89872890.839 1        53.400    22902138.547 1 119257452.426 1        45.800                                                    22902126.992 1  96906452.574 1        49.900    22902131.070 1  92217379.383 1        50.400
C16                                                                                                  36187105.734 1 188435745.994 1        44.500    36187103.074 1 145710459.212 1        44.300    36187096.070 1 153119489.737 1        44.200
C14                                                                                                  22073715.680 1 114943605.836 1        44.800    22073708.629 1  88881684.342 1        49.100    22073702.727 1  93401117.952 1        49.600
C13                                                                                                  35818926.156 1 186518590.861 1        44.600    35818925.020 1 144227942.296 1        45.100    35818918.023 1 151561566.722 1        45.200
C09                                                                                                  37071389.164 1 193040486.981 1        39.800    37071383.266 1 149271107.772 1        44.200    37071377.125 1 156861158.411 1        43.500
C06                                                                                                  36112221.492 1 188045822.609 1        41.000    36112213.422 1 145408930.219 1        46.100    36112208.680 1 152802600.012 1        45.000
C05                                                                                                  39256420.367 1 204418489.093 1        33.700    39256413.406 1 158069313.969 1        37.700    39256410.086 1 166106712.653 1        33.200
C03                                                                                                  36687846.922 1 191043208.133 1        37.200    36687828.891 1 147726693.762 1        37.500    36687825.715 1 155238200.050 1        32.800
C02                                                                                                  37384844.633 1 194672699.963 1        35.300    37384835.426 1 150533238.191 1        39.900    37384834.070 1 158187465.744 1        35.700
C01                                                                                                  37733233.266 0 196486846.259 0        38.400    37733226.324 0 151936063.495 0        39.100    37733223.078 0 159661667.273 0        37.400
R12  20723801.563 0 110702796.989 0        40.500    20723827.719 0 110702898.938 0        38.000    20723783.273 0  86102137.398 0        41.800    20723822.355 0  86102308.388 0        33.300
R03  21259709.969 0 113804764.344 0        35.400    21259713.199 0 113804803.380 0        34.900    21259718.500 0  88514927.369 0        38.500    21259716.391 0  88514948.388 0        36.300
C38  36328387.723 1 190906910.816 1        46.000    36328383.676 1 142560363.193 1        51.500    36328387.375 1 189171390.229 1        44.500                                                    36328376.551 1 153717250.620 1        48.100    36328381.512 1 146279335.001 1        47.300
G18  20755423.898 0 109070456.420 0        40.100    20755429.340 0 109070452.418 0        43.000    20755438.082 0  84990053.441 0        25.800    20755435.637 0  84989983.462 0        42.100    20755431.898 0  81448704.836 0        44.400
J07  36952219.266 1 194185203.996 1        41.000    36952217.441 1 194185231.968 1        44.300    36952212.738 1 194185264.846 1        47.000    36952225.176 1 151313189.501 1        51.200    36952225.152 1 145008466.772 1        53.200
J01  39513042.484 1 207642453.707 1        45.300    39513040.801 1 207642448.702 1        49.600    39513038.688 1 207642481.953 1        45.600    39513047.188 1 161799330.373 1        49.600    39513046.160 1 155057692.192 1        52.300    39513040.953 1 168540895.581 1        48.100
G15  22271065.375 0 117035444.045 0        45.200                                                    22271097.469 0  91196479.222 0        25.900    22271067.238 0  91196511.151 0        42.400
C42  23017636.176 1 120958466.513 1        47.600    23017643.785 1  90326131.269 1        52.300    23017637.055 1 119858837.983 1        45.400                                                    23017635.922 1  97395150.145 1        50.200    23017642.535 1  92682504.771 1        49.500
C58                                                                                                  33024716.148 0 171968356.511 0        37.500
I03  37331923.680 1 146498487.951 1        46.000
C60                                                                                                  37946396.109 1 197596844.517 1        43.100                                                    37946372.504 1 160563519.654 1        42.000    37946378.816 1 152794334.212 1        43.600
C59                                                                                                  37363965.352 1 194563972.227 1        38.700                                                    37363943.691 1 158099079.002 1        44.600    37363948.883 1 150449134.782 1        46.000
R02  20739431.414 1 110669595.622 1        45.600    20739430.031 1 110669602.607 1        47.300    20739434.797 1  86076362.708 1        49.900    20739434.313 1  86076356.710 1        48.100
G10  22947538.742 0 120590185.856 0        38.500                                                    22947546.641 0  93966362.089 0        28.700    22947544.367 0  93966570.081 0        37.900    22947538.609 0  90051106.843 0        39.400
G24  20043381.648 1 105328673.517 1        49.000                                                    20043388.957 1  82074332.372 1        56.400    20043389.195 1  82074327.377 1        50.900    20043386.207 1  78654536.316 1        54.300
E05  26320000.953 0 138312375.801 0        36.600                                                                                                    26319960.781 0 104632383.45910        27.900    26319989.305 0 112266615.635 0        35.300
E15  24000098.727 1 126121379.393 1        46.600    24000102.227 1  94181553.719 1        49.200    24000100.055 1  96638448.434 1        49.300    24000103.664 1  95409974.870 1        52.900    24000095.059 1 102371193.937 1        50.100
E13  26267010.477 0 138034241.126 0        31.800    26267036.137 0 103077468.070 0        37.700    26267031.250 0 105766444.460 0        36.400    26267035.605 0 104421972.071 0        41.300    26267026.254 0 112040674.882 0        30.500
E24  27796961.281 0 146074053.596 0        36.400                                                                                                    27796965.793 0 110504059.187 0        35.100    27796955.363 0 118566548.009 0        35.500
E08  23896218.430 0 125575696.467 0        30.600                                                                                                                                                    23896239.102 0 101928200.923 0        23.800
E03  24029825.617 1 126277650.483 1        51.300    24029828.211 1  94298215.228 1        51.500    24029825.695 1  96758030.934 1        51.500    24029828.621 1  95528207.868 1        54.800    24029818.613 1 102498170.013 1        50.900
> 2021 12 19  1 22 57.0000000  0 31       0.000000002000
C33  23109377.629 0 121440780.519 0        39.600    23109399.465 0  90686231.688 0        42.400    23109378.172 0 120336585.287 0        39.600                                                    23109379.566 0  97783325.492 0        39.000    23109398.145 0  93051908.270 0        41.700
C26  23171242.941 0 121765566.017 0        35.800    23171219.645 0  90929018.986 0        42.000    23171222.969 0 120658419.290 0        39.200                                                    23171214.992 0  98044973.761 0        40.400    23171218.813 0  93300864.143 0        40.000
C24  22901801.188 1 120349776.255 1        47.500    22901797.074 1  89871571.386 1        53.300    22901802.445 1 119255701.547 1        46.000                                                    22901790.633 1  96905029.856 1        50.200    22901794.863 1  92216025.508 1        50.200
C16                                                                                                  36187144.023 1 188435945.878 1        44.300    36187141.367 1 145710613.769 1        44.600    36187134.508 1 153119652.152 1        43.900
C14                                                                                                  22073673.070 1 114943386.404 1        44.500    22073666.715 1  88881514.651 1        49.900    22073660.195 1  93400939.654 1        49.100
C13                                                                                                  35818966.172 1 186518796.817 1        45.100    35818964.520 1 144228101.555 1        44.700    35818957.754 1 151561734.080 1        45.500
C09                                                                                                  37071377.094 1 193040431.863 1        37.100    37071372.684 1 149271065.114 1        45.800    37071366.648 1 156861113.605 1        42.100
C06                                                                                                  36112225.953 1 188045846.905 1        40.500    36112218.023 1 145408948.983 1        44.900    36112213.281 1 152802619.749 1        44.800
C05                                                                                                  39256421.242 1 204418494.092 1        33.700    39256415.563 1 158069317.835 1        33.600    39256411.234 1 166106716.728 1        32.700
C03                                                                                                  36687854.875 1 191043247.052 1        37.100    36687836.527 1 147726723.849 1        37.900    36687832.793 1 155238231.663 1        33.300
C02                                                                                                  37384846.344 1 194672709.344 1        34.600    37384837.246 1 150533245.455 1        39.300    37384835.867 1 158187473.370 1        35.200
C01                                                                                                  37733236.523 0 196486864.634 0        36.100    37733229.730 0 151936077.666 0        40.200    37733226.852 0 159661682.181 0        37.300
R12  20723831.508 0 110702954.676 0        38.600    20723858.531 0 110703056.618 0        36.300    20723809.262 0  86102259.977 0        37.000    20723851.109 0  86102431.011 0        33.300
C38  36328539.965 1 190907707.051 1        47.000    36328535.203 1 142560957.798 1        51.400    36328539.039 1 189172179.233 1        43.900                                                    36328528.063 1 153717891.756 1        48.700    36328533.051 1 146279945.121 1        47.100
G18  20755741.531 0 109072127.799 0        38.900    20755747.512 0 109072123.819 0        41.600    20755755.691 0  84991355.849 0        23.000    20755753.789 0  84991285.847 0        43.700    20755749.297 0  81449952.945 0        43.600
J07  36952218.781 1 194185201.374 1        40.900    36952217.160 1 194185229.381 1        44.300    36952212.320 1 194185262.228 1        47.000    36952223.922 1 151313187.491 1        50.200    36952224.730 1 145008464.836 1        53.400
J01  39512955.969 1 207642000.839 1        45.700    39512954.758 1 207641995.833 1        49.800    39512952.328 1 207642029.085 1        45.600    39512960.520 1 161798977.503 1        48.500    39512959.813 1 155057354.007 1        52.100    39512955.965 1 168540527.994 1        48.800
G15  22271510.516 0 117037777.988 0        45.500                                                    22271540.824 0  91198297.963 0        22.800    22271513.039 0  91198329.860 0        43.800
C42  23017770.566 1 120959182.378 1        46.500    23017780.199 1  90326665.896 1        52.500    23017774.273 1 119859547.455 1        47.500                                                    23017772.547 1  97395726.647 1        50.600    23017778.781 1  92683053.385 1        49.800
C58                                                                                                  33025091.695 0 171970309.198 0        38.600
I03  37331920.195 1 146498473.805 1        47.200
C60                                                                                                  37946406.438 1 197596893.899 1        44.300                                                    37946381.949 1 160563559.772 1        41.900    37946388.324 1 152794372.394 1        43.400
C59                                                                                                  37363963.016 1 194563959.590 1        39.100                                                    37363941.383 1 158099068.741 1        44.100    37363946.504 1 150449125.021 1        45.800
R02  20739562.516 1 110670288.713 1        49.500    20739559.395 1 110670295.713 1        46.700    20739563.910 1  86076901.805 1        50.000    20739564.316 1  86076895.815 1        47.700
G10  22947017.164 0 120587463.391 0        37.300                                                    22947028.363 0  93964240.695 0        27.800    22947024.684 0  93964448.700 0        36.400    22947020.652 0  90049073.785 0        37.900
G24  20043494.531 1 105329268.133 1        48.900                                                    20043502.168 1  82074795.712 1        56.600    20043502.645 1  82074790.717 1        51.400    20043499.266 1  78654980.352 1        54.500
E15  24000282.328 1 126122347.934 1        46.200    24000286.938 1  94182276.906 1        49.700    24000284.328 1  96639190.541 1        48.900    24000288.078 1  95410707.516 1        53.100    24000278.145 1 102371980.053 1        49.200
E13  26266700.438 0 138032605.424 0        24.800    26266725.059 0 103076246.737 0        37.200    26266718.871 0 105765191.292 0        35.600    26266724.344 0 104420734.821 0        40.800    26266715.105 0 112039347.363 0        29.800
E24  27797025.664 0 146074385.079 0        34.700                                                                                                    27797028.766 0 110504309.960 0        34.700    27797018.586 0 118566817.074 0        35.100
E08  23895992.461 0               0        26.900                                                                                                                                                    23896011.992 0               0        23.200
E03  24029893.484 1 126278007.339 1        51.300    24029896.586 1  94298481.702 1        51.900    24029894.281 1  96758304.365 1        52.200    24029896.598 1  95528477.831 1        55.400    24029886.039 1 102498459.668 1        50.600
> 2021 12 19  1 22 58.0000000  0 30       0.000000002000
C33  23109137.941 0 121439512.381 0        41.100    23109158.766 0  90685284.770 0        42.800    23109135.844 0 120335328.656 0        39.600                                                    23109138.273 0  97782304.456 0        40.400    23109156.047 0  93050936.590 0        40.200
C26  23171421.625 0 121766563.869 0        38.800    23171409.730 0  90929763.956 0        42.100    23171418.031 0 120659407.962 0        40.500                                                    23171404.516 0  98045777.128 0        41.100    23171408.641 0  93301628.642 0        39.900
C24  22901465.383 1 120348009.790 1        47.000    22901460.801 1  89870252.278 1        53.400    22901466.742 1 119253951.160 1        47.300                                                    22901454.516 1  96903607.530 1        50.500    22901458.730 1  92214672.013 1        50.100
C16                                                                                                  36187182.531 1 188436145.844 1        44.100    36187179.734 1 145710768.396 1        44.900    36187172.867 1 153119814.639 1        43.700
C14                                                                                                  22073631.492 1 114943167.149 1        45.300    22073625.172 1  88881345.089 1        51.600    22073617.797 1  93400761.505 1        49.500
C13                                                                                                  35819005.547 1 186519003.013 1        45.100    35819003.918 1 144228261.002 1        44.800    35818997.500 1 151561901.624 1        46.100
C09                                                                                                  37071368.781 1 193040376.718 1        41.600    37071361.480 1 149271022.370 1        42.000    37071355.461 1 156861068.755 1        43.700
C06                                                                                                  36112231.563 1 188045871.274 1        42.500    36112222.199 1 145408967.804 1        43.300    36112218.406 1 152802639.534 1        45.700
C05                                                                                                  39256423.078 1 204418499.234 1        34.300    39256416.125 1 158069321.828 1        36.500    39256412.258 1 166106720.901 1        33.900
C03                                                                                                  36687861.539 1 191043286.087 1        35.800    36687844.094 1 147726754.015 1        38.800    36687840.188 1 155238263.360 1        33.000
C02                                                                                                  37384848.367 1 194672718.855 1        34.400    37384838.949 1 150533252.817 1        40.600    37384837.750 1 158187481.101 1        35.400
C01                                                                                                  37733240.156 0 196486882.935 0        38.300    37733233.371 0 151936091.859 0        40.100    37733230.469 0 159661697.088 0        37.100
R12  20723861.867 0 110703113.295 0        37.600    20723888.703 0 110703215.214 0        36.700    20723836.309 0  86102383.478 0        38.400    20723881.527 0  86102554.341 0        31.900
C38  36328690.953 1 190908503.541 1        47.100    36328686.516 1 142561552.558 1        51.300    36328690.883 1 189172968.455 1        44.400                                                    36328679.598 1 153718533.084 1        48.300    36328684.633 1 146280555.410 1        47.300
G18  20756061.055 0 109073799.870 0        38.800    20756067.590 0 109073795.883 0        42.100    20756073.672 0  84992658.748 0        26.000    20756072.820 0  84992588.709 0        44.900    20756068.758 0  81451201.531 0        44.500
J07  36952219.203 1 194185198.839 1        42.500    36952217.723 1 194185226.854 1        44.900    36952212.391 1 194185259.687 1        48.100    36952223.613 1 151313185.485 1        49.600    36952224.246 1 145008462.940 1        53.900
J01  39512870.172 1 207641547.901 1        45.900    39512868.848 1 207641542.896 1        50.100    39512866.305 1 207641576.153 1        46.000    39512873.918 1 161798624.534 1        47.900    39512873.383 1 155057015.776 1        51.800    39512868.887 1 168540160.366 1        48.700
G15  22271953.742 0 117040111.976 0        44.600                                                    22271985.219 0  91200116.628 0        21.800    22271957.711 0  91200148.609 0        42.200
C42  23017909.848 1 120959898.503 1        47.500    23017916.855 1  90327200.639 1        53.000    23017908.078 1 119860256.990 1        43.500                                                    23017909.059 1  97396303.170 1        50.000    23017915.293 1  92683602.021 1        48.600
C58                                                                                                  33025466.078 0 171972262.332 0        37.700
I03  37331916.773 1 146498459.766 1        46.900
C60                                                                                                  37946414.797 1 197596943.428 1        43.000                                                    37946391.363 1 160563600.029 1        41.600    37946397.852 1 152794410.710 1        43.500
C59                                                                                                  37363960.047 1 194563946.982 1        38.500                                                    37363938.992 1 158099058.484 1        44.000    37363944.305 1 150449115.259 1        45.200
R02  20739693.156 1 110670982.005 1        49.400    20739690.332 1 110670988.937 1        47.500    20739692.875 1  86077440.968 1        48.400    20739692.969 1  86077435.015 1        46.400
G10  22946501.570 0 120584741.067 0        35.400                                                    22946509.535 0  93962119.410 0        24.000    22946507.086 0  93962327.384 0        35.700    22946502.512 0  90047040.961 0        35.600
G24  20043608.203 1 105329863.456 1        48.900                                                    20043615.773 1  82075259.595 1        56.900    20043615.875 1  82075254.608 1        52.100    20043612.516 1  78655424.896 1        54.100
E15  24000469.180 1 126123316.917 1        48.000    24000470.793 1  94183000.543 1        49.500    24000470.512 1  96639933.030 1        49.900    24000472.586 1  95411440.579 1        53.600    24000462.090 1 102372766.570 1        49.100
E13  26266389.352 0 138030969.80010        33.200    26266414.098 0 103075025.837 0        36.200    26266409.734 0 105763938.608 0        33.400    26266413.301 0 104419497.997 0        39.300    26266404.285 0 112038020.38610        29.800
E24  27797090.453 0 146074716.923 0        32.400                                                                                                    27797091.801 0 110504561.065 0        33.800    27797082.023 0 118567086.431 0        35.000
E03  24029961.352 1 126278364.298 1        50.700    24029964.715 1  94298748.264 1        52.000    24029962.625 1  96758577.878 1        53.400    24029964.535 1  95528747.870 1        55.600    24029953.422 1 102498749.436 1        50.500
> 2021 12 19  1 22 59.0000000  0 29       0.000000002000
C33  23108895.770 0 121438244.188 0        43.000    23108919.109 0  90684337.747 0        44.300    23108894.203 0 120334072.074 0        37.100                                                    23108897.293 0  97781283.404 0        40.200    23108914.555 0  93049964.953 0        40.000
C26  23171600.598 0 121767561.848 0        39.500    23171600.012 0  90930509.263 0        42.200    23171605.047 0 120660396.921 0        41.400                                                    23171594.563 0  98046580.736 0        40.100    23171598.668 0  93302393.362 0        39.700
C24  22901129.820 1 120346243.698 1        47.600    22901125.105 1  89868933.432 1        53.700    22901129.719 1 119252201.119 1        46.200                                                    22901118.672 1  96902185.463 1        50.900    22901122.512 1  92213318.749 1        50.300
C16                                                                                                  36187220.891 1 188436345.768 1        43.600    36187218.387 1 145710922.994 1        45.100    36187211.160 1 153119977.089 1        43.800
C14                                                                                                  22073589.516 1 114942947.862 1        46.100    22073583.719 1  88881175.519 1        51.700    22073576.559 1  93400583.343 1        50.800
C13                                                                                                  35819045.047 1 186519209.239 1        44.700    35819043.813 1 144228420.470 1        45.500    35819037.172 1 151562069.192 1        45.800
C09                                                                                                  37071356.664 1 193040321.641 1        37.700    37071350.066 1 149270979.873 1        44.500    37071345.461 1 156861024.028 1        44.500
C06                                                                                                  36112234.875 1 188045895.628 1        40.400    36112226.883 1 145408986.690 1        45.600    36112223.691 1 152802659.321 1        45.100
C05                                                                                                  39256423.578 1 204418504.273 1        33.900    39256416.988 1 158069325.736 1        36.900    39256413.656 1 166106724.979 1        33.300
C03                                                                                                  36687868.961 1 191043324.951 1        35.000    36687851.551 1 147726784.058 1        39.600    36687847.934 1 155238294.899 1        30.400
C02                                                                                                  37384849.734 1 194672728.190 1        33.800    37384840.980 1 150533260.017 1        39.500    37384839.527 1 158187488.689 1        36.200
C01                                                                                                  37733243.477 0 196486901.247 0        37.100    37733237.168 0 151936105.999 0        39.400    37733233.973 0 159661711.947 0        37.200
R12  20723904.570 0 110703272.590 0        40.300    20723919.703 0 110703374.599 0        37.400    20723866.996 0  86102507.380 0        35.400    20723911.906 0  86102678.228 0        33.100
C38  36328842.309 1 190909300.062 1        47.000    36328837.984 1 142562147.356 1        51.000    36328842.391 1 189173757.710 1        44.500                                                    36328830.980 1 153719174.428 1        47.700    36328836.102 1 146281165.711 1        47.800
G18  20756379.867 0 109075472.331 0        39.000    20756386.289 0 109075468.351 0        42.300    20756391.816 0  84993961.945 0        26.500    20756391.570 0  84993891.958 0        44.700    20756387.625 0  81452450.493 0        44.400
J07  36952218.063 1 194185196.232 1        42.200    36952216.957 1 194185224.213 1        45.100    36952211.711 1 194185257.079 1        48.000    36952223.656 1 151313183.419 1        50.300    36952223.344 1 145008460.958 1        53.900
J01  39512784.297 1 207641094.773 1        46.300    39512782.551 1 207641089.766 1        50.200    39512780.063 1 207641123.017 1        46.300    39512788.344 1 161798271.437 1        48.600    39512787.563 1 155056677.386 1        52.300    39512780.633 1 168539792.557 1        48.800
G15  22272402.641 0 117042446.145 0        46.000                                                    22272429.453 0  91201935.426 0        22.200    22272400.801 0  91201967.296 0        42.900
C42  23018044.559 1 120960614.615 1        46.900    23018052.496 1  90327735.412 1        52.300    23018046.891 1 119860966.628 1        46.500                                                    23018044.855 1  97396879.841 1        49.800    23018051.309 1  92684150.778 1        49.200
C58                                                                                                  33025841.367 0 171974215.527 0        37.600
I03  37331913.008 1 146498445.638 1        46.400
C60                                                                                                  37946425.180 1 197596992.779 1        43.500                                                    37946400.723 1 160563640.119 1        41.300    37946407.250 1 152794448.864 1        43.400
C59                                                                                                  37363958.500 1 194563934.218 1        38.700                                                    37363936.559 1 158099048.116 1        44.300    37363941.523 1 150449105.393 1        45.000
R02  20739820.445 1 110671675.139 1        48.700    20739820.266 1 110671682.161 1        47.600    20739823.113 1  86077980.152 1        48.000    20739822.602 1  86077974.117 1        47.200
G10  22945977.531 0 120582018.630 0        36.000                                                    22945991.469 0  93959998.000 0        21.500    22945989.055 0  93959993.22010        29.500    22945982.988 0  90045007.982 0        37.500
G24  20043721.531 1 105330459.317 1        48.800                                                    20043728.719 1  82075723.910 1        56.200    20043728.703 1  82075718.930 1        51.800    20043725.855 1  78655869.860 1        54.500
E15  24000651.617 1 126124286.346 1        46.100    24000656.313 1  94183724.408 1        50.000    24000653.426 1  96640675.778 1        49.600    24000656.902 1  95412173.887 1        53.500    24000648.301 1 102373553.425 1        49.700
E24  27797153.844 0 146075049.11810        31.200                                                                                                    27797155.168 0 110504812.406 0        33.200    27797144.813 0 118567356.09010        34.400
E03  24030029.250 1 126278721.218 1        50.800    24030032.012 1  94299014.778 1        51.200    24030029.945 1  96758851.347 1        52.400    24030032.387 1  95529017.866 1        55.200    24030022.527 1 102499039.176 1        51.000
> 2021 12 19  1 23  0.0000000  0 30       0.000000002000
C33  23108653.273 0 121436976.338 0        40.800    23108676.449 0  90683391.001 0        43.300    23108653.664 0 120332815.760 0        37.500                                                    23108656.863 0  97780262.549 0        40.000    23108673.395 0  93048993.510 0        38.700
C26  23171789.684 0 121768559.801 0        37.000    23171789.219 0  90931254.527 0        41.400    23171795.586 0 120661385.956 0        38.900                                                    23171784.551 0  98047384.373 0        39.600    23171788.598 0  93303158.121 0        38.900
C24  22900793.090 1 120344477.656 1        47.000    22900788.680 1  89867614.652 1        53.200    22900794.789 1 119250451.145 1        46.800                                                    22900782.488 1  96900763.476 1        50.400    22900786.520 1  92211965.563 1        49.800
C16                                                                                                  36187259.109 1 188436545.964 1        44.200    36187256.711 1 145711077.806 1        44.600    36187249.582 1 153120139.773 1        44.500
C14                                                                                                  22073547.172 1 114942728.626 1        44.900    22073540.219 1  88881006.005 1        50.300    22073535.000 1  93400405.201 1        49.900
C13                                                                                                  35819084.508 1 186519415.746 1        44.100    35819083.625 1 144228580.151 1        46.000    35819076.527 1 151562236.998 1        45.400
C09                                                                                                  37071346.828 1 193040267.078 1        38.200    37071341.043 1 149270937.658 1        43.500    37071334.715 1 156860979.666 1        44.700
C06                                                                                                  36112240.984 1 188045920.302 1        41.100    36112232.707 1 145409005.733 1        43.900    36112227.516 1 152802679.352 1        46.200
C05                                                                                                  39256424.445 1 204418509.975 1        32.500    39256418.188 1 158069330.131 1        36.600    39256414.602 1 166106729.629 1        34.700
C03                                                                                                  36687874.672 1 191043363.791 1        33.500    36687859.527 1 147726814.126 1        39.100    36687855.602 1 155238326.500 1        32.100
C02                                                                                                  37384851.414 1 194672738.025 1        33.300    37384842.715 1 150533267.619 1        39.300    37384841.383 1 158187496.670 1        36.500
C01                                                                                                  37733247.617 0 196486918.937 0        36.500    37733240.668 0 151936119.677 0        39.400    37733237.387 0 159661726.338 0        37.600
C38  36328992.656 1 190910096.629 1        45.600    36328989.629 1 142562742.171 1        51.000    36328994.258 1 189174547.047 1        45.400                                                    36328982.746 1 153719815.816 1        47.500    36328987.504 1 146281776.067 1        48.400
G18  20756700.430 0 109077145.661 0        38.100    20756705.828 0 109077141.688 0        41.300    20756710.285 0  84995265.827 0        24.500    20756709.848 0  84995195.900 0        43.600    20756707.754 0  81453700.083 0        45.400
J07  36952216.641 1 194185193.323 1        39.100    36952214.980 1 194185221.351 1        43.800    36952210.434 1 194185254.169 1        46.400    36952223.680 1 151313181.222 1        51.600    36952221.957 1 145008458.841 1        53.700
J01  39512697.422 1 207640641.158 1        45.500    39512695.715 1 207640636.153 1        49.700    39512693.621 1 207640669.403 1        45.700    39512702.434 1 161797917.962 1        48.800    39512701.543 1 155056338.649 1        52.300    39512696.156 1 168539424.352 1        48.800
G15  22272843.672 0 117044779.600 0        43.600                                                    22272873.625 0  91203753.703 0        22.600    22272846.434 0  91203785.693 0        43.600
C42  23018181.012 1 120961330.444 1        46.500    23018189.215 1  90328269.943 1        53.100    23018182.313 1 119861675.969 1        45.500                                                    23018181.133 1  97397456.213 1        49.700    23018187.434 1  92684699.259 1        50.100
C58                                                                                                  33026217.594 0 171976169.644 0        39.000
I03  37331909.023 1 146498431.837 1        46.400
C60                                                                                                  37946434.633 1 197597042.641 1        43.000                                                    37946410.359 1 160563680.620 1        41.300    37946416.855 1 152794487.431 1        43.600
C59                                                                                                  37363955.422 1 194563921.073 1        37.900                                                    37363934.102 1 158099037.431 1        44.300    37363939.129 1 150449095.226 1        44.300
R02  20739950.141 1 110672368.070 1        47.700    20739949.289 1 110672375.077 1        45.700    20739952.109 1  86078519.126 1        47.200    20739952.688 1  86078513.091 1        47.700
G10  22945461.141 0 120579296.964 0        33.300                                                    22945472.828 0  93957877.260 0        23.200    22945471.848 0  93957872.19510        33.900    22945466.797 0  90042975.345 0        38.600
G24  20043834.852 1 105331055.630 1        49.000                                                    20043842.055 1  82076188.575 1        55.000    20043842.188 1  82076183.564 1        51.700    20043839.613 1  78656315.153 1        55.300
E05  26321235.656 0 138319021.80010        35.100
E15  24000837.297 1 126125256.529 1        46.800    24000840.219 1  94184448.934 1        49.700    24000838.996 1  96641419.217 1        50.100    24000841.723 1  95412907.868 1        53.500    24000832.703 1 102374340.909 1        49.400
E13  26265771.078 0 138027700.96110        32.800    26265791.844 0 103072584.98210        34.400    26265787.961 0 105761433.97110        37.100    26265791.461 0 104417025.30410        39.600    26265783.223 0 112035367.11810        28.300
E24  27797217.820 0 146075381.192 0        28.200                                                                                                    27797218.438 0 110505063.612 0        33.900    27797207.910 0 118567625.598 0        33.800
E03  24030098.227 1 126279078.284 1        53.000    24030099.375 1  94299281.421 1        51.200    24030096.727 1  96759124.947 1        52.100    24030100.324 1  95529287.977 1        55.100    24030091.793 1 102499328.983 1        51.800
> 2021 12 19  1 23  1.0000000  0 28       0.000000002000
C33  23108412.633 0 121435708.891 0        39.400    23108435.211 0  90682444.520 0        42.800    23108412.305 0 120331559.874 0        34.300                                                    23108415.828 0  97779242.023 0        38.400    23108432.387 0  93048022.434 0        40.400
C26  23171979.387 0 121769557.808 0        34.600    23171978.895 0  90931999.754 0        39.700    23171984.188 0 120662374.775 0        37.100                                                    23171974.520 0  98048187.848 0        38.300    23171978.863 0  93303922.733 0        37.100
C24  22900457.879 1 120342711.738 1        47.300    22900452.582 1  89866295.941 1        53.000    22900458.023 1 119248701.256 1        45.900                                                    22900446.254 1  96899341.543 1        50.600    22900450.426 1  92210612.454 1        49.300
C16                                                                                                  36187297.781 1 188436746.404 1        44.000    36187295.027 1 145711232.788 1        45.300    36187288.094 1 153120302.645 1        44.300
C14                                                                                                  22073504.461 1 114942509.378 1        43.600    22073497.863 1  88880836.486 1        50.900    22073492.227 1  93400227.007 1        47.600
C13                                                                                                  35819124.242 1 186519622.472 1        44.000    35819123.242 1 144228740.007 1        45.400    35819116.457 1 151562404.974 1        45.600
C09                                                                                                  37071336.430 1 193040212.925 1        38.700    37071330.426 1 149270895.771 1        46.600    37071324.539 1 156860935.639 1        42.200
C06                                                                                                  36112245.328 1 188045945.442 1        41.700    36112236.906 1 145409025.172 1        45.000    36112232.387 1 152802699.796 1        45.700
C05                                                                                                  39256426.203 1 204418516.363 1        33.500    39256419.434 1 158069335.064 1        36.100    39256415.926 1 166106734.809 1        34.500
C03                                                                                                  36687882.070 1 191043402.798 1        34.200    36687866.898 1 147726844.337 1        36.400    36687862.648 1 155238358.184 1        31.500
C02                                                                                                  37384853.625 1 194672748.348 1        34.000    37384844.852 1 150533275.590 1        38.000    37384843.523 1 158187505.042 1        36.800
C01                                                                                                  37733250.406 0 196486936.277 0        34.800    37733243.766 0 151936133.100 0        40.500    37733240.750 0 159661740.447 0        39.000
C38  36329145.598 1 190910893.195 1        46.400    36329141.051 1 142563337.007 1        50.700    36329146.039 1 189175336.355 1        44.600                                                    36329134.285 1 153720457.171 1        47.100    36329139.273 1 146282386.395 1        48.300
G18  20757019.500 0 109078820.078 0        29.400    20757025.684 0 109078816.082 0        35.400    20757028.898 0  84996570.608 0        20.900    20757029.129 0  84996500.471 0        40.200    20757030.324 0  81454950.375 0        44.300
J07  36952216.188 1 194185190.258 1        39.600    36952214.938 1 194185218.262 1        44.300    36952210.414 1 194185251.107 1        46.600    36952222.297 1 151313178.791 1        51.000    36952221.832 1 145008456.543 1        53.900
J01  39512611.141 1 207640187.028 1        46.100    39512609.641 1 207640182.022 1        50.200    39512607.504 1 207640215.273 1        46.000    39512615.492 1 161797564.110 1        48.800    39512615.141 1 155055999.525 1        51.800    39512609.895 1 168539055.743 1        48.400
G15  22273288.281 0 117047112.699 0        44.000                                                    22273317.926 0  91205571.705 0        22.900    22273291.500 0  91205603.608 0        44.500
C42  23018317.121 1 120962045.911 1        47.000    23018325.227 1  90328804.213 1        53.900    23018318.156 1 119862384.942 1        46.300                                                    23018317.164 1  97398032.309 1        50.600    23018323.516 1  92685247.471 1        50.700
C58                                                                                                  33026592.500 0 171978124.825 0        38.500
I03  37331905.766 1 146498418.386 1        45.600
C60                                                                                                  37946444.102 1 197597093.003 1        42.700                                                    37946420.012 1 160563721.554 1        41.600    37946426.301 1 152794526.390 1        43.400
C59                                                                                                  37363953.203 1 194563907.631 1        36.500                                                    37363931.551 1 158099026.503 1        42.400    37363936.621 1 150449084.852 1        43.000
R02  20740081.102 1 110673060.753 1        46.000    20740079.848 1 110673067.761 1        43.900    20740082.578 1  86079057.874 1        47.300    20740082.980 1  86079051.855 1        47.400
G24  20043948.195 1 105331652.306 1        48.800                                                    20043955.637 1  82076653.504 1        54.900    20043955.996 1  82076648.517 1        51.700    20043952.613 1  78656760.709 1        55.100
E05  26321544.648 0 138320647.681 0        36.200                                                                                                                                                    26321536.785 0 112273211.43710        39.200
E15  24001022.648 1 126126227.745 1        45.700    24001025.148 1  94185174.195 1        48.300    24001023.066 1  96642163.394 1        50.100    24001026.504 1  95413642.595 1        53.000    24001016.547 1 102375129.219 1        49.000
E13  26265462.117 0 138026068.272 0        34.000    26265480.828 0 103071365.73310        37.400    26265476.762 0 105760182.947 0        35.400    26265480.289 0 104415790.119 0        39.900    26265471.867 0 112034041.730 0        29.900
E03  24030165.383 1 126279435.390 1        51.900    24030167.238 1  94299548.082 1        52.200    24030164.922 1  96759398.565 1        53.100    24030168.262 1  95529558.117 1        56.000    24030158.961 1 102499618.821 1        52.700
> 2021 12 19  1 23  2.0000000  0 25       0.000000002000
C26  23172171.047 0 121770555.81810        33.200    23172168.855 0  90932744.987 0        37.600    23172174.047 0 120663363.741 0        34.900                                                    23172164.246 0  98048991.454 0        37.800    23172168.996 0  93304687.463 0        29.800
C24  22900121.063 1 120340946.026 1        46.300    22900116.672 1  89864977.395 1        53.200    22900122.133 1 119246951.594 1        45.500                                                    22900110.125 1  96897919.792 1        50.000    22900114.344 1  92209259.500 1        49.000
C16                                                                                                  36187336.219 1 188436947.175 1        44.300    36187333.668 1 145711388.039 1        44.600    36187326.750 1 153120465.790 1        43.900
C14                                                                                                  22073463.797 1 114942290.194 1        44.900    22073455.449 1  88880666.985 1        49.500    22073450.438 1  93400048.888 1        49.900
C13                                                                                                  35819164.273 1 186519829.520 1        44.600    35819162.762 1 144228900.103 1        44.600    35819156.289 1 151562573.208 1        45.200
C09                                                                                                  37071327.359 1 193040159.293 1        40.200    37071320.656 1 149270854.285 1        45.700    37071313.891 1 156860892.079 1        41.700
C06                                                                                                  36112250.438 1 188045970.931 1        42.000    36112242.000 1 145409044.881 1        43.200    36112237.219 1 152802720.508 1        45.600
C05                                                                                                  39256427.367 1               1        32.800    39256420.785 1               1        35.200    39256417.316 1               1        34.000
C03                                                                                                  36687887.750 1 191043441.893 1        32.600    36687873.820 1 147726874.538 1        38.100    36687869.746 1 155238389.925 1        31.700
C38  36329296.785 1 190911689.932 1        45.900    36329292.621 1 142563931.969 1        50.900    36329297.008 1 189176125.826 1        44.600                                                    36329286.141 1 153721098.678 1        47.200    36329290.824 1 146282996.872 1        47.700
J07  36952215.203 1 194185187.140 1        40.100    36952214.398 1 194185215.132 1        44.300    36952209.102 1 194185247.988 1        47.100    36952221.617 1 151313176.341 1        51.700    36952221.023 1 145008454.191 1        53.400
J01  39512524.703 1 207639732.506 1        45.800    39512523.520 1 207639727.491 1        50.000    39512520.801 1 207639760.752 1        45.900    39512529.352 1 161797209.913 1        48.500    39512528.414 1 155055660.086 1        51.100    39512522.242 1 168538686.815 1        48.400
G15  22273734.320 0 117049445.355 0        43.000                                                    22273762.094 0  91207389.342 0        22.300    22273737.852 0  91207421.263 0        44.300
C42  23018453.402 1 120962761.188 1        47.600    23018461.688 1  90329338.333 1        53.200    23018453.695 1 119863093.624 1        46.000                                                    23018453.391 1  97398608.175 1        50.500    23018459.629 1  92685795.472 1        49.700
C58                                                                                                  33026968.203 0 171980080.955 0        37.500
I03  37331902.305 1 146498405.391 1        43.800
C60                                                                                                  37946454.148 1 197597143.951 1        42.900                                                    37946429.805 1 160563762.969 1        41.400    37946436.281 1 152794565.746 1        37.900
C59                                                                                                  37363950.414 1 194563893.809 1        37.400                                                    37363928.738 1 158099015.253 1        41.400    37363933.988 1 150449074.166 1        43.700
R02  20740210.258 1 110673753.238 1        45.900    20740209.516 1 110673760.230 1        44.600    20740213.832 1  86079596.461 1        49.100    20740212.629 1  86079590.456 1        48.400
G10  22944428.375 0               0        35.500                                                                                                    22944433.398 0  93953631.62910        36.700    22944430.508 0  90038911.36610        39.900
G24  20044061.766 1 105332249.500 1        49.200                                                    20044069.570 1  82077118.840 1        54.900    20044069.379 1  82077113.845 1        51.100    20044066.520 1  78657206.673 1        54.400
E05  26321851.883 0 138322273.043 0        32.500    26321857.832 0 103292604.61910        40.200    26321855.145 0 105987189.30610        36.300    26321858.863 0 104639877.77310        40.900    26321846.367 0 112274530.746 0        39.000
E15  24001206.961 1 126127199.954 1        43.600    24001209.383 1  94185900.171 1        47.200    24001208.719 1  96642908.268 1        48.800    24001211.313 1  95414378.010 1        52.300    24001201.277 1 102375918.334 1        48.700
E13  26265152.883 0 138024436.329 0        30.800    26265170.012 0 103070147.119 0        36.500    26265166.313 0 105758932.515 0        36.800    26265170.230 0 104414555.594 0        40.400    26265160.680 0 112032717.289 0        29.300
E03  24030233.547 1 126279792.588 1        51.700    24030235.453 1  94299814.836 1        52.500    24030233.016 1  96759672.265 1        53.100    24030236.258 1  95529828.338 1        56.300    24030226.883 1 102499908.755 1        52.900
> 2021 12 19  1 23  3.0000000  0 26       0.000000004000
C33  23107928.871 0 121433175.04510        33.500    23107952.508 0  90680552.41510        36.900    23107929.977 0               0        35.300
C26  23172363.141 0 121771554.24610        33.300    23172358.039 0  90933490.58110        35.300    23172365.547 0 120664353.192 0        35.200                                                    23172354.363 0  98049795.444 0        36.200    23172358.707 0  93305452.504 0        31.900
C24  22899785.367 1 120339180.795 1        47.300    22899780.832 1  89863659.189 1        53.700    22899785.734 1 119245202.407 1        46.300                                                    22899774.391 1  96896498.438 1        50.300    22899778.508 1  92207906.909 1        49.100
C16                                                                                                  36187375.031 1 188437147.807 1        45.000    36187371.984 1 145711543.188 1        44.600    36187365.242 1 153120628.822 1        44.300
C14                                                                                                  22073421.781 1 114942070.953 1        45.600    22073414.184 1  88880497.469 1        49.300    22073407.930 1  93399870.798 1        48.800
C13                                                                                                  35819203.930 1 186520036.613 1        44.100    35819202.621 1 144229060.244 1        45.000    35819195.918 1 151562741.488 1        45.300
C09                                                                                                  37071316.648 1 193040105.453 1        41.600    37071311.176 1 149270812.634 1        42.200    37071303.129 1 156860848.374 1        43.700
C06                                                                                                  36112255.789 1 188045996.342 1        41.300    36112246.543 1 145409064.529 1        45.600    36112242.445 1 152802741.158 1        44.700
C05                                                                                                  39256428.313 1               1        33.500    39256421.820 1               1        33.600    39256418.828 1               1        33.100
C38  36329448.148 1 190912486.773 1        45.200    36329444.402 1 142564527.025 1        50.700    36329448.922 1 189176915.469 1        44.300                                                    36329437.668 1 153721740.333 1        47.300    36329442.602 1 146283607.459 1        47.300
G23  20748299.547 0               0        32.400
G18  20757652.703 0               0        28.300
J07  36952214.781 1 194185184.015 1        40.100    36952213.977 1 194185212.022 1        44.300    36952208.297 1 194185244.863 1        47.500    36952221.035 1 151313173.907 1        51.400    36952220.559 1 145008451.842 1        53.500
J01  39512437.828 1 207639277.793 1        44.600    39512436.492 1 207639272.784 1        49.200    39512434.160 1 207639306.037 1        44.700    39512442.559 1 161796855.616 1        47.700    39512442.148 1 155055320.560 1        50.600    39512436.387 1 168538317.733 1        47.800
G15  22274181.352 0 117051778.050 0        43.900                                                    22274206.355 0  91209206.969 0        21.300    22274184.121 0  91209239.064 0        44.700
C42  23018588.867 1 120963476.482 1        47.200    23018597.289 1  90329872.480 1        53.600    23018589.914 1 119863802.465 1        46.400                                                    23018589.598 1  97399184.149 1        50.200    23018595.555 1  92686343.591 1        50.100
C58                                                                                                  33027343.852 0 171982037.166 0        38.800
I03  37331899.773 1 146498392.204 1        45.500
C60                                                                                                  37946463.367 1 197597194.728 1        40.500                                                    37946439.758 1 160563804.232 1        39.800    37946446.035 1 152794605.009 1        39.600
C59                                                                                                  37363947.180 1 194563880.063 1        36.900                                                    37363926.141 1 158099004.101 1        42.900    37363931.316 1 150449063.523 1        43.000
R02  20740339.258 1 110674445.576 1        42.600    20740337.969 1 110674452.642 1        43.700    20740343.422 1  86080135.062 1        49.200    20740342.992 1  86080128.953 1        47.300
G24  20044175.594 1 105332847.257 1        48.900                                                    20044183.281 1  82077584.631 1        54.800    20044183.406 1  82077579.651 1        51.000    20044180.215 1  78657653.067 1        53.800
E05  26322161.969 0 138323898.43110        34.900    26322167.816 0 103293818.308 0        37.800    26322165.875 0 105988434.804 0        37.400    26322168.172 0 104641107.334 0        39.900
E15  24001392.984 1 126128172.322 1        43.200    24001395.887 1  94186626.283 1        48.900    24001393.695 1  96643653.359 1        49.700    24001396.172 1  95415113.620 1        53.100    24001386.199 1 102376707.616 1        48.800
E13  26264843.625 0 138022805.009 0        35.700    26264859.203 0 103068928.744 0        38.100    26264855.492 0 105757682.380 0        38.400    26264859.816 0 104413321.347 0        42.300    26264850.227 0 112031392.960 0        27.500
E03  24030300.828 1 126280149.671 1        51.100    24030302.926 1  94300081.490 1        52.400    24030300.762 1  96759945.878 1        52.600    24030304.215 1  95530098.469 1        56.100    24030294.527 1 102500198.587 1        52.900
> 2021 12 19  1 23  4.0000000  0 27       0.000000004000
C33  23107687.848 0 121431907.528 0        33.600    23107713.680 0  90679605.748 0        38.200    23107689.539 0               0        38.900                                                    23107689.168 0               0        38.700
C24  22899449.816 1 120337416.390 1        47.300    22899445.098 1  89862341.610 1        53.400    22899449.906 1 119243454.026 1        45.800                                                    22899438.773 1  96895077.719 1        50.100    22899442.660 1  92206554.939 1        48.900
C16                                                                                                  36187413.156 1 188437348.129 1        44.800    36187410.563 1 145711698.083 1        44.900    36187403.730 1 153120791.603 1        44.000
C14                                                                                                  22073378.719 1 114941851.935 1        45.000    22073371.934 1  88880328.187 1        48.800    22073364.762 1  93399692.719 1        46.800
C13                                                                                                  35819243.781 1 186520243.653 1        44.600    35819242.117 1 144229220.333 1        44.400    35819235.680 1 151562909.720 1        45.300
C09                                                                                                  37071305.969 1 193040051.222 1        39.900    37071301.063 1 149270770.729 1        41.200    37071294.309 1 156860804.327 1        43.200
C06                                                                                                  36112260.070 1 188046021.356 1        39.800    36112251.215 1 145409083.895 1        46.300    36112246.527 1 152802761.472 1        44.600
C02                                                                                                  37384864.930 0 194672779.63810        36.000
C01                                                                                                  37733260.359 0 196486989.98910        34.900
C38  36329600.055 1 190913283.842 1        46.000    36329596.254 1 142565122.242 1        51.300    36329600.484 1 189177705.281 1        44.600                                                    36329589.242 1 153722382.111 1        48.000    36329594.188 1 146284218.218 1        47.700
G23  20748026.688 0               0        35.400                                                                                                    20748035.504 0  84959782.53110        35.800
G18  20757971.344 0               0        27.300    20757981.191 0 109083841.03410        29.100
J07  36952214.109 1 194185181.064 1        38.800    36952213.012 1 194185209.063 1        43.600    36952208.059 1 194185241.911 1        46.100    36952221.344 1 151313171.615 1        52.400    36952219.465 1 145008449.638 1        53.000
J01  39512351.500 1 207638823.514 1        44.500    39512349.941 1 207638818.514 1        48.800    39512347.789 1 207638851.752 1        44.600    39512356.172 1 161796501.611 1        46.900    39512355.359 1 155054981.322 1        50.200    39512349.555 1 168537948.996 1        47.500
G15  22274633.508 0 117054111.666 0        43.500                                                    22274651.297 0  91211025.313 0        22.500    22274630.879 0  91211057.397 0        44.300
C42  23018725.645 1 120964192.506 1        47.500    23018733.906 1  90330407.217 1        54.100    23018726.719 1 119864512.040 1        47.600                                                    23018725.898 1  97399760.724 1        50.700    23018731.805 1  92686892.267 1        50.000
C58                                                                                                  33027719.531 0 171983992.557 0        40.500
I03  37331896.375 1 146498378.483 1        44.800
C60                                                                                                  37946473.570 1 197597244.676 1        41.300                                                    37946449.191 1 160563844.820 1        40.600    37946455.582 1 152794643.628 1        40.100
C59                                                                                                  37363945.344 1 194563866.777 1        36.700                                                    37363923.813 1 158098993.270 1        42.200    37363928.891 1 150449053.216 1        41.600
R02  20740469.945 1 110675138.720 1        46.000    20740468.836 1 110675145.696 1        44.100    20740472.984 1  86080674.086 1        47.900    20740472.227 1  86080668.081 1        46.400
G10  22943392.695 0               0        39.000                                                                                                    22943398.547 0  93949390.66510        31.700    22943394.418 0  90034847.19010        35.800
G24  20044289.789 1 105333446.023 1        49.000                                                    20044297.160 1  82078051.210 1        54.800    20044297.207 1  82078046.215 1        50.700    20044294.258 1  78658100.194 1        54.000
E05  26322472.563 0 138325524.34410        33.500    26322477.578 0 103295032.619 0        38.100    26322474.906 0 105989680.556 0        29.000    26322477.945 0 104642337.463 0        37.700
E15  24001577.555 1 126129144.358 1        43.200    24001581.984 1  94187352.207 1        49.700    24001579.066 1  96644398.205 1        50.200    24001581.320 1  95415849.002 1        53.900    24001572.031 1 102377496.621 1        48.700
E13  26264533.547 0 138021172.678 0        37.500    26264547.582 0 103067709.886 0        38.100    26264545.348 0 105756431.791 0        37.600    26264549.156 0 104412086.625 0        41.500    26264539.738 0 112030068.146 0        28.300
E03  24030368.641 1 126280506.628 1        48.800    24030372.238 1  94300348.065 1        53.200    24030370.168 1  96760219.396 1        52.900    24030372.090 1  95530368.544 1        56.600    24030362.910 1 102500488.382 1        52.800
> 2021 12 19  1 23  5.0000000  0 27       0.000000004000
C33  23107447.250 0 121430640.422 0        37.200    23107472.398 0  90678659.673 0        38.300    23107447.977 0               0        36.500                                                    23107449.254 0               0        37.100
C26                                                                                                  23172761.117 0 120666613.24610        36.300                                                    23172753.133 0               0        31.700
C24  22899114.094 1 120335652.388 1        47.000    22899109.309 1  89861024.352 1        52.300    22899114.813 1 119241706.116 1        46.500                                                    22899103.035 1  96893657.387 1        48.700    22899106.977 1  92205203.341 1        48.000
C16                                                                                                  36187451.555 1 188437548.654 1        44.600    36187449.117 1 145711853.137 1        44.500    36187442.371 1 153120954.546 1        44.300
C14                                                                                                  22073337.703 1 114941632.914 1        45.900    22073329.723 1  88880158.708 1        48.700    22073324.496 1  93399514.806 1        52.000
C13                                                                                                  35819283.477 1 186520451.032 1        44.900    35819282.168 1 144229380.695 1        44.900    35819275.414 1 151563078.247 1        45.000
C09                                                                                                  37071295.461 1 193039997.374 1        39.900    37071289.484 1 149270729.120 1        46.000    37071283.469 1 156860760.532 1        43.700
C06                                                                                                  36112265.852 1 188046046.612 1        43.000    36112256.160 1 145409103.413 1        46.300    36112251.340 1 152802782.011 1        45.800
C03                                                                                                  36687906.156 1 191043557.87211        36.500
C02                                                                                                  37384867.820 0 194672789.849 0        28.900
C01                                                                                                  37733263.883 0 196487007.604 0        35.900
C38  36329751.645 1 190914081.239 1        45.300    36329747.645 1 142565717.676 1        51.400    36329752.922 1 189178495.396 1        44.700                                                    36329741.137 1 153723024.149 1        48.200    36329745.902 1 146284829.176 1        47.300
G23  20747754.383 0               0        34.500    20747755.547 0 109030243.95210        35.500                                                    20747759.953 0  84958662.922 0        37.700    20747759.430 0  81418837.15410        39.300
G18  20758290.070 0               0        33.200    20758300.090 0 109085517.482 0        34.200                                                                                                    20758316.492 0  81459954.64410        31.900
J07  36952214.125 1 194185178.193 1        39.200    36952212.625 1 194185206.177 1        43.900    36952207.766 1 194185239.041 1        46.700    36952219.367 1 151313169.346 1        50.100    36952219.301 1 145008447.485 1        52.900
J01  39512265.547 1 207638368.930 1        44.700    39512264.250 1 207638363.920 1        49.100    39512261.555 1 207638397.181 1        44.900    39512269.813 1 161796147.414 1        47.100    39512269.043 1 155054641.850 1        50.000    39512263.543 1 168537580.026 1        46.600
G15  22275075.422 0               0        40.100                                                    22275095.594 0               0        20.600    22275075.379 0  91212875.565 0        38.400
C42  23018862.328 1 120964908.407 1        48.500    23018870.121 1  90330941.792 1        54.100    23018863.375 1 119865221.453 1        47.000                                                    23018862.195 1  97400337.190 1        50.400    23018868.234 1  92687440.832 1        50.200
C58                                                                                                  33028095.031 0 171985948.840 0        39.500
I03  37331891.563 1 146498365.146 1        43.300
C60                                                                                                  37946483.758 1 197597295.044 1        41.800                                                    37946459.082 1 160563885.723 1        40.000    37946465.172 1 152794682.570 1        40.500
C59                                                                                                  37363942.172 1 194563853.407 1        37.100                                                    37363921.180 1 158098982.381 1        40.300    37363926.266 1 150449042.882 1        40.600
R02  20740601.305 1 110675831.502 1        46.000    20740598.898 1 110675838.419 1        44.300    20740600.836 1  86081212.848 1        46.700    20740602.000 1  86081206.933 1        46.500
G24  20044403.922 1 105334045.336 1        48.500                                                    20044410.973 1  82078518.218 1        54.700    20044411.195 1  82078513.201 1        50.700    20044408.449 1  78658547.735 1        54.100
E15  24001760.789 1 126130117.425 1        41.000    24001766.441 1  94188078.746 1        50.200    24001763.027 1  96645143.754 1        48.600    24001766.535 1  95416585.048 1        52.800    24001755.781 1 102378286.457 1        48.500
E13  26264224.258 0 138019541.438 0        35.800    26264237.051 0 103066491.821 0        37.000    26264235.199 0 105755181.934 0        35.200    26264238.777 0 104410852.678 0        39.700    26264229.293 0 112028744.228 0        29.600
E03  24030436.906 1 126280863.593 1        47.200    24030439.883 1  94300614.681 1        51.500    24030438.012 1  96760492.968 1        51.600    24030440.082 1  95530638.620 1        55.000    24030428.645 1 102500778.128 1        51.300
> 2021 12 19  1 23  6.0000000  0 26       0.000000004000
C33  23107205.809 0 121429373.319 0        34.800    23107230.699 0  90677713.446 0        34.900    23107207.203 0               0        30.800                                                    23107208.348 0               0        39.900
C26                                                                                                  23172951.578 0               0        35.800                                                    23172947.148 0               0        25.600
C24  22898778.020 1 120333888.713 1        47.200    22898773.629 1  89859707.317 1        52.800    22898779.438 1 119239958.459 1        47.200                                                    22898767.207 1  96892237.274 1        49.100    22898771.355 1  92203851.957 1        48.300
C16                                                                                                  36187490.734 1 188437748.999 1        45.400    36187487.656 1 145712008.072 1        44.500    36187480.754 1 153121117.351 1        44.700
C14                                                                                                  22073294.656 1 114941413.868 1        45.200    22073287.199 1  88879989.382 1        51.200    22073281.516 1  93399336.862 1        42.700
C13                                                                                                  35819323.727 1 186520658.373 1        45.400    35819322.262 1 144229541.021 1        45.400    35819315.242 1 151563246.753 1        45.300
C09                                                                                                  37071284.688 1 193039943.398 1        39.900    37071279.051 1 149270687.361 1        41.400    37071272.473 1 156860716.653 1        41.200
C06                                                                                                  36112269.367 1 188046071.870 1        40.400    36112262.008 1 145409122.932 1        44.700    36112256.965 1 152802802.526 1        45.400
C01                                                                                                  37733267.648 0 196487025.007 0        35.900
C38  36329902.934 1 190914878.611 1        44.500    36329899.887 1 142566313.104 1        51.600    36329903.945 1 189179285.550 1        44.100                                                    36329892.965 1 153723666.205 1        47.800    36329897.801 1 146285440.149 1        47.600
G23  20747480.906 0               0        32.400                                                                                                    20747485.934 0  84957543.234 0        37.200    20747486.930 0  81417764.114 0        42.800
G18  20758607.797 0               0        35.200    20758616.055 0 109087194.204 0        36.900                                                                                                    20758626.082 0  81461206.40710        37.900
J07  36952213.656 1 194185175.204 1        39.400    36952212.184 1 194185203.184 1        43.800    36952206.758 1 194185236.051 1        46.800    36952219.953 1 151313167.009 1        51.600    36952218.898 1 145008445.244 1        53.500
J01  39512178.688 1 207637914.048 1        43.500    39512177.270 1 207637909.043 1        48.200    39512174.988 1 207637942.292 1        43.900    39512183.438 1 161795792.925 1        46.400    39512182.746 1 155054302.148 1        49.300    39512176.410 1 168537210.789 1        46.200
G15  22275527.516 0               0        43.000                                                    22275539.879 0               0        22.300
C42  23018998.320 1 120965624.251 1        48.200    23019006.309 1  90331476.314 1        53.800    23018998.586 1 119865930.676 1        46.700                                                    23018998.438 1  97400913.491 1        50.500    23019004.410 1  92687989.244 1        50.300
C58                                                                                                  33028470.461 0 171987905.179 0        38.700
I03  37331889.477 1 146498351.592 1        45.800
C60                                                                                                  37946492.617 1 197597345.384 1        41.600                                                    37946468.809 1 160563926.615 1        39.200    37946474.883 1 152794721.490 1        39.600
C59                                                                                                  37363939.648 1 194563839.968 1        39.000                                                    37363918.488 1 158098971.478 1        40.900    37363923.570 1 150449032.525 1        43.200
R02  20740729.477 1 110676524.062 1        46.400    20740728.055 1 110676531.085 1        44.800    20740733.133 1  86081751.582 1        50.200    20740732.219 1  86081745.569 1        47.600
G10  22942344.859 0               0        37.300                                                                                                                                                    22942358.871 0  90030782.95510        37.900
G24  20044518.156 1 105334645.132 1        48.600                                                    20044525.625 1  82078985.586 1        54.800    20044525.668 1  82078980.583 1        51.500    20044522.383 1  78658995.634 1        54.500
E15  24001948.641 1 126131090.628 1        44.200    24001950.301 1  94188805.564 1        48.600    24001948.621 1  96645889.507 1        48.300    24001952.051 1  95417321.313 1        51.900    24001941.426 1 102379076.367 1        48.700
E13  26263915.742 0 138017910.650 0        35.800    26263927.363 0 103065274.001 0        35.200    26263924.969 0 105753932.233 0        33.800    26263928.355 0 104409618.929 0        37.600    26263918.758 0 112027420.378 0        28.700
E03  24030505.297 1 126281220.474 1        50.400    24030507.559 1  94300881.157 1        50.100    24030504.922 1  96760766.421 1        49.600    24030507.859 1  95530908.600 1        53.100    24030500.359 1 102501067.831 1        51.000
> 2021 12 19  1 23  7.0000000  0 26       0.000000004000
C33  23106963.395 0 121428106.233 0        34.900    23106989.855 0  90676767.300 0        34.700    23106965.586 0               0        35.000                                                    23106968.004 0               0        37.400
C26                                                  23173120.563 0  90936479.34010        32.900    23173143.375 0 120668596.32810        32.900                                                    23173137.160 0  98053113.17310        23.600
C24  22898443.230 1 120332125.564 1        47.200    22898438.234 1  89858390.675 1        53.300    22898443.555 1 119238211.339 1        46.400                                                    22898431.746 1  96890817.614 1        49.700    22898435.820 1  92202500.975 1        49.100
C16                                                                                                  36187528.836 1 188437949.224 1        45.400    36187526.063 1 145712162.883 1        44.300    36187519.262 1 153121280.044 1        44.600
C14                                                                                                  22073252.578 1 114941194.607 1        45.900    22073246.395 1  88879819.820 1        48.500    22073238.914 1  93399158.605 1        51.500
C13                                                                                                  35819363.039 1 186520865.818 1        44.800    35819362.211 1 144229701.431 1        45.000    35819355.555 1 151563415.335 1        45.800
C09                                                                                                  37071275.188 1 193039889.198 1        41.000    37071268.059 1 149270645.485 1        44.600    37071261.793 1 156860672.622 1        43.800
C06                                                                                                  36112274.828 1 188046096.833 1        44.000    36112266.996 1 145409142.219 1        43.800    36112262.074 1 152802822.807 1        43.700
R12  20724125.852 0               0        37.700    20724162.566 0 110704688.28810        37.100                                                    20724156.164 0               0        33.600
C38  36330055.070 1 190915676.201 1        44.600    36330051.258 1 142566908.692 1        50.800    36330056.125 1 189180075.897 1        45.300                                                    36330044.371 1 153724308.398 1        48.900    36330049.727 1 146286051.268 1        47.000
G23  20747207.820 0               0        25.900                                                                                                    20747212.090 0  84956423.645 0        36.100    20747212.219 0  81416691.257 0        40.800
G18  20758932.070 0 109088873.010 0        37.100    20758938.801 0 109088871.008 0        39.600                                                    20758944.547 0  85004334.35210        37.900    20758950.484 0  81462458.742 0        44.300
J07  36952212.688 1 194185172.296 1        39.100    36952211.410 1 194185200.307 1        43.600    36952206.559 1 194185233.147 1        46.400    36952219.660 1 151313164.753 1        52.100    36952218.098 1 145008443.043 1        53.400
J01  39512092.438 1 207637459.046 1        44.600    39512090.652 1 207637454.031 1        48.100    39512088.082 1 207637487.290 1        44.500    39512096.762 1 161795438.395 1        46.700    39512095.906 1 155053962.353 1        49.200    39512090.141 1 168536841.476 1        45.200
G15  22275974.234 0               0        38.000                                                    22275984.848 0               0        20.900
C42  23019134.457 1 120966340.151 1        47.900    23019142.559 1  90332010.931 1        53.600    23019134.336 1 119866640.116 1        47.200                                                    23019134.578 1  97401489.949 1        50.400    23019140.563 1  92688537.809 1        49.600
C58                                                                                                  33028846.258 0 171989861.545 0        39.900
I03  37331885.023 1 146498338.087 1        41.700
C60                                                                                                  37946502.594 1 197597395.421 1        40.900                                                    37946478.305 1 160563967.281 1        39.300    37946484.746 1 152794760.206 1        39.400
C59                                                                                                  37363937.242 1 194563826.642 1        38.700                                                    37363915.832 1 158098960.684 1        43.600    37363921.094 1 150449022.217 1        44.700
R02  20740858.531 1 110677216.628 1        44.100    20740857.813 1 110677223.702 1        44.100    20740861.316 1  86082290.267 1        49.500    20740862.023 1  86082284.217 1        47.400
G10  22941827.867 0 120560241.18910        40.700                                                                                                                                                    22941841.484 0  90028750.736 0        35.000
G24  20044632.344 1 105335245.552 1        48.400                                                    20044639.172 1  82079453.434 1        54.900    20044639.328 1  82079448.446 1        51.400    20044636.898 1  78659443.986 1        54.700
E15  24002132.516 1 126132064.149 1        42.600    24002136.773 1  94189532.499 1        49.200    24002135.223 1  96646635.390 1        50.500    24002137.137 1  95418057.746 1        52.900    24002127.852 1 102379866.571 1        49.800
E13  26263607.430 0 138016279.890 0        32.500    26263616.938 0 103064056.262 0        38.500    26263615.918 0 105752682.772 0        35.900    26263617.949 0 104408385.323 0        41.000    26263608.332 0 112026096.859 0        27.400
E03  24030571.820 1 126281577.142 1        50.600    24030575.586 1  94301147.586 1        49.000    24030574.234 1  96761039.748 1        50.100    24030575.758 1  95531178.454 1        52.900    24030564.070 1 102501357.325 1        49.100
> 2021 12 19  1 23  8.0000000  0 26       0.000000004000
C33  23106723.785 0 121426838.930 0        36.600    23106749.695 0  90675820.910 0        34.100    23106724.148 0               0        32.600                                                    23106727.113 0               0        36.900
C26                                                  23173310.000 0  90937227.238 0        31.400    23173334.969 0               0        35.100                                                    23173329.926 0               0        30.700
C24  22898107.629 1 120330363.104 1        46.400    22898102.555 1  89857074.519 1        53.200    22898108.367 1 119236464.895 1        45.700                                                    22898096.465 1  96889398.464 1        50.000    22898100.539 1  92201150.483 1        48.800
C16                                                                                                  36187567.438 1 188438149.445 1        45.100    36187564.762 1 145712317.714 1        44.600    36187557.781 1 153121442.733 1        45.200
C14                                                                                                  22073210.992 1 114940975.658 1        48.300    22073204.289 1  88879650.482 1        47.800    22073198.438 1  93398980.761 1        53.200
C13                                                                                                  35819402.516 1 186521073.438 1        44.300    35819402.059 1 144229861.973 1        44.600    35819395.781 1 151563584.036 1        46.800
C09                                                                                                  37071264.273 1 193039835.157 1        38.800    37071257.680 1 149270603.717 1        45.000    37071251.168 1 156860628.735 1        43.700
C06                                                                                                  36112278.805 1 188046121.814 1        43.700    36112271.180 1 145409161.565 1        47.200    36112266.164 1 152802843.138 1        45.100
C03                                                                                                  36687926.688 1 191043673.94411        38.500
C38  36330207.020 1 190916474.048 1        44.600    36330203.262 1 142567504.472 1        50.600    36330207.914 1 189180866.490 1        44.700                                                    36330196.648 1 153724950.802 1        49.300    36330201.480 1 146286662.587 1        47.300
G23  20746935.891 0 109026030.809 0        34.500                                                                                                    20746940.027 0  84955304.263 0        37.700    20746940.359 0  81415618.507 0        42.600
G18  20759251.711 0 109090550.632 0        38.800    20759257.230 0 109090548.616 0        41.900                                                    20759262.090 0  85005641.572 0        45.400    20759263.770 0  81463711.459 0        45.700
J07  36952212.297 1 194185169.496 1        39.300    36952210.941 1 194185197.506 1        44.000    36952206.027 1 194185230.344 1        46.800    36952218.859 1 151313162.557 1        51.900    36952217.324 1 145008440.972 1        52.800
J01  39512005.797 1 207637004.140 1        42.600    39512004.328 1 207636999.132 1        47.500    39512001.836 1 207637032.385 1        42.900    39512009.875 1 161795083.980 1        46.100    39512008.992 1 155053622.682 1        48.700    39512003.246 1 168536472.226 1        45.500
G15  22276424.023 0 117063447.612 0        42.700                                                    22276429.172 0  91218300.685 0        22.900
C42  23019270.727 1 120967056.526 1        48.500    23019278.539 1  90332545.867 1        53.800    23019271.578 1 119867349.963 1        47.300                                                    23019270.645 1  97402066.751 1        50.100    23019276.848 1  92689086.714 1        49.500
C58                                                                                                  33029221.555 0 171991817.913 0        39.400
I03  37331882.328 1 146498324.334 1        45.300
C60                                                                                                  37946513.734 1 197597445.346 1        42.800                                                    37946487.965 1 160564007.853 1        38.500    37946493.980 1 152794798.820 1        40.400
C59                                                                                                  37363935.297 1 194563812.63011        38.100                                                    37363913.473 1 158098949.63811        42.000    37363918.418 1 150449011.66311        42.900
R02  20740988.484 1 110677909.595 1        43.800    20740987.609 1 110677916.676 1        44.100    20740991.629 1  86082829.243 1        49.600    20740992.012 1  86082823.163 1        47.400
G10  22941311.070 0               0        39.600                                                                                                                                                    22941322.883 0  90026718.594 0        30.700
G24  20044746.719 1 105335846.815 1        48.900                                                    20044754.082 1  82079921.950 1        55.000    20044754.004 1  82079916.947 1        51.900    20044751.266 1  78659892.979 1        54.700
E15  24002317.930 1 126133037.846 1        43.300    24002323.445 1  94190259.605 1        50.700    24002320.820 1  96647381.444 1        50.700    24002322.262 1  95418794.344 1        53.500    24002310.672 1 102380656.865 1        48.900
E13  26263297.836 0 138014649.404 0        35.700    26263306.535 0 103062838.657 0        37.100    26263304.922 0 105751433.515 0        35.300    26263307.805 0 104407151.886 0        40.200    26263297.965 0 112024773.383 0        26.400
E03  24030641.164 1 126281933.950 1        52.300    24030644.504 1  94301413.959 1        50.400    24030642.285 1  96761313.084 1        51.300    24030643.594 1  95531448.322 1        54.000    24030634.488 1 102501646.929 1        49.500
> 2021 12 19  1 23  9.0000000  0 27       0.000000004000
C33  23106482.141 0 121425572.669 0        38.100                                                    23106483.828 0 120321513.797 0        36.200                                                    23106485.938 0  97771092.460 0        35.200
C26                                                  23173500.313 0  90937974.570 0        31.200    23173527.305 0 120670582.02110        40.000                                                    23173521.848 0               0        26.200
C24  22897772.016 1 120328600.871 1        45.900    22897767.359 1  89855758.568 1        51.900    22897773.031 1 119234718.679 1        46.100                                                    22897761.152 1  96887979.476 1        49.300    22897765.047 1  92199800.161 1        48.100
C16                                                                                                  36187605.508 1 188438349.740 1        44.400    36187603.109 1 145712472.570 1        44.500    36187596.219 1 153121605.470 1        45.400
C14                                                                                                  22073167.984 1 114940756.120 1        40.800    22073160.766 1  88879480.660 1        49.000    22073155.836 1               1        45.600
C13                                                                                                  35819442.992 1 186521281.246 1        44.500    35819441.363 1 144230022.658 1        45.100    35819435.305 1 151563752.861 1        46.300
C09                                                                                                  37071255.203 1 193039781.362 1        42.900    37071248.176 1 149270562.057 1        43.800    37071241.086 1 156860584.995 1        44.700
C06                                                                                                  36112284.703 1 188046147.141 1        42.100    36112276.621 1 145409181.100 1        43.800    36112271.527 1 152802863.688 1        43.700
C03                                                                                                  36687933.930 1 191043713.375 1        39.600
C01                                                                                                  37733276.469 0 196487078.88310        37.000
C38  36330358.965 1 190917272.143 1        44.400    36330355.078 1 142568100.433 1        50.600    36330360.008 1 189181657.330 1        44.200                                                    36330348.242 1 153725593.418 1        48.700    36330353.207 1 146287274.099 1        47.300
G23  20746661.664 0 109024594.101 0        36.700                                                                                                    20746666.281 0  84954184.704 0        41.100    20746665.848 0  81414545.584 0        40.200
G18  20759572.992 0 109092228.497 0        39.100    20759576.719 0 109092226.503 0        42.400                                                    20759582.414 0  85006949.07510        41.100    20759586.691 0  81464964.449 0        44.100
J07  36952211.484 1 194185166.829 1        38.200    36952210.184 1 194185194.838 1        42.900    36952205.383 1 194185227.683 1        45.000    36952217.520 1 151313160.489 1        50.600    36952217.160 1 145008438.983 1        52.500
J01  39511918.828 1 207636548.305 1        43.100    39511917.125 1 207636543.290 1        47.000    39511915.195 1 207636576.556 1        43.000    39511923.852 1 161794728.726 1        45.100    39511922.430 1 155053282.264 1        48.300    39511916.438 1 168536102.225 1        45.300
G15  22276869.219 0               0        38.300                                                    22276873.895 0               0        20.900
C42  23019406.918 1 120967771.899 1        48.300    23019414.551 1  90333080.079 1        54.100    23019407.484 1 119868058.903 1        46.600                                                    23019406.828 1  97402642.840 1        50.700    23019412.969 1  92689634.927 1        50.700
C58                                                                                                  33029597.656 0 171993775.618 0        38.500
I03  37331877.859 1 146498311.216 1        45.900
C60                                                                                                  37946521.773 1 197597496.340 1        38.400                                                    37946497.754 1 160564049.329 1        38.500    37946503.945 1 152794838.260 1        39.100
C59                                                                                                  37363933.039 1 194563799.268 1        42.100                                                    37363910.883 1 158098938.15011        42.000    37363915.871 1 150449000.69911        42.200
R02  20741119.570 1 110678601.474 1        45.700    20741118.152 1 110678608.555 1        44.500    20741121.797 1  86083367.346 1        48.500    20741121.320 1  86083361.303 1        46.000
G10  22940791.406 0               0        39.900                                                                                                                                                    22940805.750 0  90024687.084 0        36.400
G24  20044861.344 1 105336448.168 1        49.200                                                    20044868.316 1  82080390.519 1        54.900    20044868.406 1  82080385.517 1        52.100    20044865.648 1  78660342.025 1        55.000
E15  24002503.242 1 126134012.748 1        43.200    24002506.715 1  94190987.622 1        48.600    24002505.887 1  96648128.438 1        49.700    24002508.000 1  95419531.828 1        52.400    24002498.047 1 102381448.217 1        49.100
E13  26262988.188 0 138013020.382 0        31.500    26262996.742 0 103061622.185 0        36.400    26262995.121 0 105750185.256 0        35.300    26262997.719 0 104405919.520 0        39.700    26262988.727 0 112023451.110 0        26.500
E03  24030709.102 1 126282290.366 1        52.600    24030710.441 1  94301680.007 1        50.300    24030707.879 1  96761586.103 1        50.800    24030711.633 1  95531717.860 1        53.800    24030701.609 1 102501936.135 1        50.200
> 2021 12 19  1 23 10.0000000  0 28       0.000000004000
C33  23106241.563 0 121424305.797 0        37.300                                                    23106241.672 0 120320258.390 0        34.600                                                    23106245.430 0  97770072.277 0        34.800
C26                                                  23173691.500 0  90938722.582 0        32.100    23173725.602 0 120671575.71510        38.800
C24  22897437.086 1 120326839.049 1        46.000    22897431.910 1  89854442.913 1        51.600    22897437.289 1 119232972.838 1        45.400                                                    22897425.551 1  96886560.848 1        48.900    22897429.742 1  92198450.183 1        48.500
C16                                                                                                  36187644.320 1 188438549.528 1        44.700    36187641.219 1 145712627.056 1        45.100    36187634.496 1 153121767.806 1        43.700
C14                                                                                                  22073127.141 1 114940536.327 1        46.600    22073117.750 1  88879310.880 1        41.600    22073113.723 1               1        50.700
C13                                                                                                  35819482.930 1 186521488.780 1        44.700    35819481.488 1 144230183.120 1        44.900    35819475.074 1 151563921.498 1        46.100
C09                                                                                                  37071244.367 1 193039727.215 1        42.800    37071237.977 1 149270520.203 1        45.000    37071231.586 1 156860540.970 1        40.900
C06                                                                                                  36112290.383 1 188046171.827 1        43.600    36112280.887 1 145409200.175 1        44.300    36112276.082 1 152802883.724 1        44.500
C05                                                                                                  39256437.297 1 204418570.96711        34.600
C03                                                                                                  36687941.602 1 191043752.535 1        39.400
C01                                                                                                  37733280.641 1 196487096.467 1        37.600
C38  36330510.832 1 190918070.141 1        44.600    36330507.258 1 142568696.346 1        50.900    36330511.320 1 189182448.103 1        43.900                                                    36330499.977 1 153726235.984 1        48.000    36330504.992 1 146287885.570 1        48.100
G23  20746387.469 0 109023157.170 0        38.100    20746386.398 0 109023060.17510        41.300                                                    20746392.520 0  84953065.076 0        43.700    20746392.703 0  81413472.538 0        44.100
G18  20759894.164 0 109093906.243 0        34.500    20759897.207 0 109093904.248 0        39.900                                                                                                    20759907.500 0  81466217.361 0        42.400
J07  36952211.750 1 194185163.970 1        39.400    36952210.160 1 194185191.971 1        43.300    36952204.727 1 194185224.825 1        46.300    36952217.117 1 151313158.298 1        50.000    36952216.586 1 145008436.858 1        52.400
J01  39511831.625 1 207636092.295 1        42.700    39511829.988 1 207636087.302 1        46.900    39511828.043 1 207636120.539 1        42.700    39511837.141 1 161794373.420 1        45.200    39511836.168 1 155052941.742 1        48.800    39511830.074 1 168535732.083 1        45.000
G15  22277309.992 0 117068115.575 0        47.200                                                    22277317.934 0  91221938.388 0        20.900
C42  23019542.695 1 120968487.423 1        47.800    23019551.117 1  90333614.402 1        55.000    23019543.398 1 119868767.899 1        46.900                                                    23019543.332 1  97403218.952 1        50.900    23019549.207 1  92690183.148 1        51.000
C58                                                                                                  33029973.891 0 171995732.702 0        39.500
I03  37331875.969 1 146498297.60011        43.700
C60                                                                                                  37946532.836 1 197597546.247 1        41.600                                                    37946507.344 1 160564089.853 1        39.700    37946513.672 1 152794876.817 1        39.500
C59                                                                                                  37363929.719 1 194563785.981 1        41.800                                                    37363908.023 1 158098927.376 1        43.600    37363913.410 1 150448990.458 1        44.900
R02  20741249.359 1 110679293.162 1        45.400    20741247.555 1 110679300.221 1        44.600    20741251.344 1  86083905.350 1        48.700    20741250.969 1  86083899.285 1        46.200
G10  22940273.867 0               0        34.800                                                                                                                                                    22940287.117 0  90022655.090 0        35.200
G24  20044975.313 1 105337050.016 1        48.900                                                    20044983.223 1  82080859.482 1        54.800    20044983.301 1  82080854.487 1        52.300    20044980.035 1  78660791.454 1        55.100
E15  24002687.875 1 126134987.298 1        40.500    24002692.629 1  94191715.277 1        50.100    24002689.141 1  96648875.177 1        48.200    24002693.313 1  95420269.013 1        52.700    24002682.133 1 102382239.252 1        48.700
E13  26262679.023 0 138011391.25110        33.000    26262686.320 0 103060405.592 0        33.200    26262684.461 0 105748936.833 0        33.000    26262687.539 0 104404686.991 0        37.100    26262679.023 0 112022128.66310        27.200
E03  24030777.219 1 126282646.276 1        52.300    24030778.188 1  94301945.765 1        51.900    24030775.887 1  96761858.807 1        52.900    24030779.488 1  95531987.080 1        55.600    24030768.645 1 102502225.011 1        50.900
> 2021 12 19  1 23 11.0000000  0 26       0.000000004000
C33  23106000.031 0 121423038.304 0        35.300                                                    23106001.625 0 120319002.380 0        35.500                                                    23106004.660 0  97769051.538 0        30.400
C24  22897100.898 1 120325077.431 1        45.300    22897097.039 1  89853127.373 1        52.500    22897102.414 1 119231227.213 1        45.200                                                    22897090.363 1  96885142.392 1        49.400    22897094.535 1  92197100.347 1        49.600
C16                                                                                                  36187682.422 1 188438748.867 1        45.000    36187679.758 1 145712781.197 1        44.900    36187672.723 1 153121929.768 1        43.200
C14                                                                                                  22073084.055 1 114940316.539 1        46.000    22073073.906 1  88879140.794 1        45.900    22073071.195 1               1        50.900
C13                                                                                                  35819522.664 1 186521696.053 1        45.000    35819521.375 1 144230343.404 1        46.200    35819514.875 1 151564089.928 1        45.900
C09                                                                                                  37071233.797 1 193039672.428 1        42.100    37071227.527 1 149270477.820 1        45.100    37071220.828 1 156860496.469 1        43.000
C06                                                                                                  36112295.648 1 188046196.033 1        44.400    36112285.672 1 145409218.890 1        45.800    36112280.543 1 152802903.363 1        42.800
C05                                                                                                  39256438.320 1 204418575.794 1        35.000
C03                                                                                                  36687948.969 1 191043791.009 1        40.600    36687940.371 1 147727131.05011        43.500    36687937.344 1               1        40.500
C01                                                                                                  37733284.164 1 196487113.841 1        39.000
C38  36330662.258 1 190918867.941 1        44.700    36330658.766 1 142569292.127 1        50.200    36330663.227 1 189183238.637 1        44.300                                                    36330651.961 1 153726878.352 1        47.500    36330656.801 1 146288496.852 1        46.800
G23  20746113.875 0 109021720.210 0        38.300    20746112.820 0 109021623.228 0        41.400                                                    20746117.477 0  84951945.343 0        42.700    20746118.504 0  81412399.533 0        45.200
G18  20760206.438 0 109095585.358 0        31.500    20760209.336 0 109095583.364 0        34.700                                                                                                    20760226.574 0  81467470.321 0        40.500
J07  36952210.516 1 194185160.743 1        38.300    36952209.211 1 194185188.761 1        42.500    36952203.957 1 194185221.592 1        45.200    36952216.309 1 151313155.809 1        49.400    36952215.980 1 145008434.457 1        51.500
J01  39511744.953 1 207635636.084 1        42.200    39511743.160 1 207635631.098 1        46.400    39511741.520 1 207635664.329 1        42.300    39511749.156 1 161794017.937 1        44.700    39511749.102 1 155052601.090 1        49.000    39511743.184 1 168535361.766 1        45.500
C42  23019679.617 1 120969203.106 1        47.900    23019687.305 1  90334148.795 1        54.900    23019679.711 1 119869477.068 1        46.300                                                    23019679.480 1  97403795.199 1        51.500    23019685.492 1  92690731.501 1        50.800
C58                                                                                                  33030350.117 0 171997689.089 0        39.400
I03  37331872.141 1 146498283.365 1        44.700
C60                                                                                                  37946541.484 1 197597595.616 1        40.800                                                    37946516.891 1 160564129.939 1        39.200    37946523.348 1 152794914.982 1        40.100
C59                                                                                                  37363926.836 1 194563772.490 1        41.800                                                    37363905.563 1 158098916.429 1        44.600    37363910.684 1 150448980.038 1        45.900
R02  20741378.531 1 110679984.971 1        45.400    20741377.352 1 110679992.044 1        44.900    20741379.695 1  86084443.436 1        48.400    20741380.715 1  86084437.394 1        46.100
G10  22939756.852 0               0        36.200                                                                                                                                                    22939769.441 0  90020622.382 0        38.700
G24  20045090.047 1 105337652.339 1        49.100                                                    20045097.434 1  82081328.826 1        55.400    20045097.645 1  82081323.822 1        52.500    20045094.730 1  78661241.235 1        55.500
E15  24002875.750 1 126135961.438 1        43.900    24002877.914 1  94192442.877 1        49.400    24002876.207 1  96649621.655 1        50.700    24002878.480 1  95421006.058 1        53.500    24002868.805 1 102383029.908 1        49.400
E13  26262369.836 0 138009761.348 0        37.400    26262376.551 0 103059188.469 0        34.900    26262374.551 0 105747688.008 0        36.100    26262377.422 0 104403454.008 0        39.200    26262368.941 0 112020805.770 0        28.200
E03  24030845.258 1 126283001.945 1        51.000    24030846.293 1  94302211.367 1        53.100    24030843.414 1  96762131.337 1        53.300    24030847.070 1  95532256.146 1        56.400    24030836.180 1 102502513.710 1        51.100
> 2021 12 19  1 23 12.0000000  0 29       0.000000006000
C33  23105758.680 0 121421770.585 0        36.700                                                    23105759.453 0 120317746.297 0        33.700                                                    23105762.742 0  97768030.815 0        27.600
C26                                                  23174072.609 0  90940220.02910        31.500    23174117.125 0               0        33.700
C24  22896766.918 1 120323316.421 1        46.900    22896761.609 1  89851812.327 1        52.000    22896768.445 1 119229482.243 1        47.500                                                    22896755.434 1  96883724.427 1        49.000    22896759.691 1  92195750.995 1        49.100
C16                                                                                                  36187720.758 1 188438948.376 1        46.100    36187717.816 1 145712935.486 1        45.500    36187711.066 1 153122091.902 1        43.800
C14                                                                                                  22073041.063 1 114940097.102 1        37.700    22073033.984 1  88878970.986 1        49.300    22073028.965 1               1        48.500
C13                                                                                                  35819562.406 1 186521903.627 1        45.000    35819561.301 1 144230503.885 1        45.800    35819554.934 1 151564258.589 1        46.100
C09                                                                                                  37071223.430 1 193039617.659 1        41.600    37071216.531 1 149270435.471 1        44.600    37071210.336 1 156860451.954 1        43.100
C06                                                                                                  36112298.109 1 188046220.478 1        40.500    36112289.715 1 145409237.855 1        47.300    36112285.344 1 152802923.295 1        45.900
C05                                                                                                  39256439.125 1 204418580.328 1        34.600
C03                                                                                                  36687956.633 1 191043829.578 1        40.000    36687947.957 1 147727160.867 1        43.300    36687944.902 1 155238698.585 1        40.500
C01                                                                                                  37733287.727 1 196487131.471 1        40.600    37733280.598 1 151936282.58311        40.900    37733277.820 1 159661845.47311        39.400
C38  36330814.949 1 190919665.994 1        45.300    36330810.512 1 142569888.060 1        50.300    36330815.281 1 189184029.416 1        44.500                                                    36330803.895 1 153727520.918 1        47.200    36330808.590 1 146289108.345 1        47.400
G23  20745840.586 0 109020283.897 0        39.600    20745840.473 0 109020186.893 0        42.400                                                    20745844.969 0  84950826.168 0        44.000    20745845.355 0  81411326.938 0        46.000
G18  20760525.023 0 109097264.988 0        35.200    20760523.203 0 109097262.994 0        37.000                                                    20760538.832 0  85010872.04710        40.200    20760540.047 0  81468724.044 0        44.100
J07  36952210.266 1 194185157.622 1        38.100    36952208.750 1 194185185.639 1        42.300    36952203.422 1 194185218.469 1        45.500    36952216.695 1 151313153.332 1        49.800    36952215.379 1 145008432.144 1        50.800
J01  39511658.984 1 207635180.393 1        43.300    39511657.371 1 207635175.370 1        47.100    39511654.551 1 207635208.644 1        43.500    39511662.617 1 161793662.766 1        44.600    39511662.594 1 155052260.738 1        49.100    39511656.297 1 168534991.887 1        45.600
G15  22278191.383 0               0        41.900
C42  23019814.594 1 120969919.450 1        47.000    23019823.539 1  90334683.732 1        54.700    23019817.266 1 119870186.911 1        46.800                                                    23019815.371 1  97404371.990 1        51.400    23019821.656 1  92691280.392 1        51.400
C58                                                                                                  33030725.383 0 171999645.751 0        37.700
I03  37331866.977 1 146498269.071 1        41.800
C60                                                                                                  37946550.531 1 197597644.636 1        41.800                                                    37946526.344 1 160564169.781 1        40.900    37946532.977 1 152794952.864 1        38.700
C59                                                                                                  37363924.297 1 194563759.146 1        43.000                                                    37363903.129 1 158098905.569 1        44.500    37363908.117 1 150448969.707 1        46.000
R02  20741507.844 1 110680677.578 1        45.000    20741507.270 1 110680684.608 1        44.400    20741510.613 1  86084982.080 1        49.100    20741510.547 1  86084976.067 1        47.200
G10  22939239.703 0               0        36.300                                                                                                                                                    22939251.961 0  90018589.614 0        37.300
G24  20045204.945 1 105338255.698 1        48.800                                                    20045211.789 1  82081798.971 1        55.400    20045212.176 1  82081793.969 1        52.100    20045209.445 1  78661691.794 1        55.400
E05  26324943.852 0               0        39.000    26324947.180 0 103304744.51210        42.300    26324944.703 0 105999643.59010        37.500    26324949.141 0 104652173.85010        43.200    26324928.082 0               0        35.000
E15  24003061.359 1 126136936.147 1        44.900    24003063.680 1  94193170.684 1        50.300    24003060.676 1  96650368.464 1        49.600    24003063.852 1  95421743.367 1        53.600    24003053.465 1 102383821.086 1        49.000
E13  26262060.711 0 138008131.590 0        31.800    26262067.102 0 103057971.426 0        34.500    26262065.023 0 105746439.246 0        35.500    26262067.281 0 104402221.121 0        38.300    26262059.348 0 112019482.911 0        28.900
E03  24030912.641 1 126283358.067 1        48.200    24030914.039 1  94302477.317 1        53.500    24030911.496 1  96762404.214 1        53.400    24030914.840 1  95532525.562 1        56.700    24030904.270 1 102502802.771 1        51.300
> 2021 12 19  1 23 13.0000000  0 29       0.000000006000
C33  23105517.910 0 121420502.939 0        33.700    23105539.715 0  90671082.23410        36.100    23105517.469 0 120316490.137 0        31.600                                                    23105520.832 0  97767010.164 0        31.100
C26                                                  23174266.387 0  90940970.514 0        35.100    23174319.711 0 120674561.64610        37.700
C24  22896431.449 1 120321556.233 1        46.600    22896426.930 1  89850497.903 1        51.700    22896432.297 1 119227738.043 1        47.200                                                    22896420.680 1  96882307.128 1        48.900    22896424.918 1  92194402.279 1        49.000
C16                                                                                                  36187758.977 1 188439148.430 1        45.800    36187756.281 1 145713090.194 1        46.300    36187749.395 1 153122254.493 1        43.700
C14                                                                                                  22072999.656 1 114939878.881 1        39.000    22072992.328 1  88878802.364 1        50.100    22072986.977 1               1        47.500
C13                                                                                                  35819602.430 1 186522111.739 1        44.700    35819601.328 1 144230664.808 1        45.200    35819594.801 1 151564427.689 1        45.400
C09                                                                                                  37071212.031 1 193039563.065 1        40.700    37071206.004 1 149270393.283 1        45.100    37071199.371 1 156860407.602 1        42.400
C06                                                                                                  36112304.391 1 188046245.204 1        43.600    36112295.430 1 145409256.881 1        47.900    36112290.668 1 152802943.287 1        45.100
C05                                                                                                  39256440.070 1 204418584.711 1        35.000    39256432.195 1               1        37.200    39256430.258 1               1        36.200
C03                                                                                                  36687963.672 1 191043868.056 1        40.600    36687955.422 1 147727190.625 1        43.800    36687952.223 1 155238729.866 1        41.100
C01                                                                                                  37733291.016 1 196487149.503 1        41.400    37733283.875 1 151936296.514 1        40.800    37733281.281 1 159661860.130 1        39.500
C38  36330965.730 1 190920464.413 1        44.200    36330962.445 1 142570484.276 1        49.900    36330966.953 1 189184820.584 1        43.600                                                    36330955.555 1 153728163.797 1        47.200    36330960.449 1 146289720.126 1        47.800
G23  20745567.961 0 109018848.741 0        39.800    20745566.000 0 109018751.739 0        43.000                                                    20745571.895 0  84949707.904 0        43.300    20745571.621 0  81410255.250 0        45.600
G18  20760843.125 0 109098945.159 0        37.400    20760844.828 0 109098943.156 0        39.200                                                    20760859.719 0  85012181.182 0        40.800    20760870.125 0  81469978.627 0        39.700
J07  36952209.453 1 194185154.674 1        36.300    36952207.730 1 194185182.685 1        41.000    36952202.848 1 194185215.522 1        43.600    36952215.242 1 151313151.038 1        47.700    36952215.051 1 145008429.939 1        50.700
J01  39511571.672 1 207634725.486 1        41.700    39511569.660 1 207634720.486 1        46.600    39511568.164 1 207634753.732 1        41.800    39511576.465 1 161793308.335 1        45.000    39511575.926 1 155051921.053 1        49.100    39511569.676 1 168534622.642 1        45.400
G15  22278636.570 0 117075118.810 0        46.000
C42  23019950.633 1 120970637.059 1        46.900    23019959.895 1  90335219.607 1        54.300    23019952.766 1 119870897.971 1        45.900                                                    23019952.180 1  97404949.777 1        51.700    23019958.340 1  92691830.224 1        51.700
C58                                                                                                  33031101.602 0 172001602.182 0        40.800
I03  37331864.648 1 146498254.545 1        43.200
C60                                                                                                  37946559.633 1 197597693.407 1        40.800                                                    37946535.801 1 160564209.417 1        40.900    37946541.852 1 152794990.630 1        41.100
C59                                                                                                  37363922.313 1 194563746.194 1        43.600                                                    37363900.602 1 158098895.031 1        44.500    37363905.691 1 150448959.680 1        46.000
R02  20741636.602 1 110681371.589 1        41.600    20741636.035 1 110681378.589 1        43.700    20741641.500 1  86085521.856 1        49.800    20741640.492 1  86085515.858 1        47.800
G10  22938729.273 0 120543908.674 0        39.600                                                    22938738.246 0  93930297.66710        27.000    22938737.340 0  93930300.61810        37.900    22938733.762 0  90016556.561 0        38.600
G24  20045320.344 1 105338860.514 1        48.800                                                    20045327.273 1  82082270.253 1        55.100    20045327.500 1  82082265.258 1        52.200    20045324.641 1  78662143.443 1        55.200
E05  26325253.586 0 138340190.352 0        40.000    26325260.336 0 103305958.909 0        37.000    26325252.773 0 106000889.696 0        35.500    26325258.336 0 104653404.110 0        38.700    26325238.363 0 112289016.670 0        32.200
E15  24003247.086 1 126137911.258 1        44.300    24003250.461 1  94193898.855 1        51.200    24003246.410 1  96651115.672 1        49.000    24003249.895 1  95422481.053 1        53.800    24003241.039 1 102384612.610 1        50.000
E13  26261751.086 0 138006501.816 0        26.600    26261756.703 0 103056754.471 0        34.700    26261755.152 0 105745190.421 0        34.100    26261757.016 0 104400988.245 0        38.500    26261749.234 0 112018160.113 0        29.600
E03  24030978.281 1 126283715.205 1        47.100    24030982.102 1  94302744.018 1        53.700    24030979.469 1  96762677.869 1        53.300    24030982.707 1  95532795.740 1        57.100    24030971.074 1 102503092.652 1        51.200
